[
  {
    "codigo": "13",
    "nome": "Sampaio Moreira",
    "descricao": "Restauro de edifício histórico da cidade de São Paulo",
    "localizacao": "R. Líbero Badaró, 340 - Centro, São Paulo - SP, 01002-010",
    "id_programa": 24,
    "id_distrito": 80,
    "subprefeitura": "SÉ",
    "latitude": -23.546624,
    "longitude": -46.6363537,
    "prioritario": false
  },
  {
    "codigo": "15",
    "nome": "Chucri Zaidan (Prolongamento) - Fase 1",
    "descricao": "Prolongamento da Av. Chucri Zaidan e Complexo Viário Burle Marx - Ponte Laguna sobre o Rio Pinheiros",
    "localizacao": "Av. Dr. Chucri Zaidan, 902 - Vila Cordeiro, São Paulo - SP",
    "id_programa": 2,
    "id_distrito": 72,
    "subprefeitura": "Santo Amaro ",
    "latitude": -23.6215708,
    "longitude": -46.6998594,
    "prioritario": false
  },
  {
    "codigo": "16",
    "nome": "Corredor Itaquera 2 e Terminal",
    "descricao": "Construção de terminal viário urbano, terminal intermunicipal e/ou rodoviário Itaquera e trecho de corredor",
    "localizacao": "Av. Itaquera",
    "id_programa": 5,
    "id_distrito": 36,
    "subprefeitura": null,
    "latitude": -23.5537456,
    "longitude": -46.4901473,
    "prioritario": false
  },
  {
    "codigo": "17",
    "nome": "ROMA - Contratos antigos da Av. Roberto Marinho",
    "descricao": "Prolongamento da Av. Jornalista Roberto Marinho até a Rodovia dos Imigrantes, construção de um parque linear e habitações de interesse social",
    "localizacao": "Av. Jornalista Roberto Marinho 4000, São Paulo",
    "id_programa": 2,
    "id_distrito": 72,
    "subprefeitura": "Santo Amaro ",
    "latitude": -23.6376224,
    "longitude": -46.663102,
    "prioritario": false
  },
  {
    "codigo": "19",
    "nome": "Parque do chuvisco",
    "descricao": "Execução de um parque no antigo parque de funcionários da Varig",
    "localizacao": "R. Ipiranga, 792 - Jardim Aeroporto, São Paulo",
    "id_programa": 2,
    "id_distrito": 37,
    "subprefeitura": "Jabaquara ",
    "latitude": -23.6363539,
    "longitude": -46.6622063,
    "prioritario": false
  },
  {
    "codigo": "20",
    "nome": "Othon Palace Hotel",
    "descricao": "Reforma e Restauro Ed. Othon Palace Hotel",
    "localizacao": "R. Líbero Badaró, 190, Centro",
    "id_programa": 24,
    "id_distrito": 80,
    "subprefeitura": "SÉ",
    "latitude": -23.5478236,
    "longitude": -46.6368128,
    "prioritario": false
  },
  {
    "codigo": "31",
    "nome": "Corredor Itaquera 1",
    "descricao": "Trecho de 2 km de corredor",
    "localizacao": "Av. Itaquera",
    "id_programa": 5,
    "id_distrito": 36,
    "subprefeitura": null,
    "latitude": -23.5537513,
    "longitude": -46.4898468,
    "prioritario": false
  },
  {
    "codigo": "32",
    "nome": "Autódromo de Interlagos - 2017",
    "descricao": "Obras complementares, instalações permanentes e reforma da pista para o GP de Fórmula 1",
    "localizacao": "Av. Sen. Teotônio Vilela, 261",
    "id_programa": 11,
    "id_distrito": 81,
    "subprefeitura": "Capela do Socorro ",
    "latitude": -23.7064151,
    "longitude": -46.7002891,
    "prioritario": false
  },
  {
    "codigo": "33",
    "nome": "Praça das Artes",
    "descricao": "Elaboração de projetos e execução de obras complementares dos corpos artísticos e praça junto à Rua Formosa",
    "localizacao": "Rua Formosa, 357",
    "id_programa": 3,
    "id_distrito": 80,
    "subprefeitura": "SÉ",
    "latitude": -23.5455165,
    "longitude": -46.6372472,
    "prioritario": false
  },
  {
    "codigo": "34",
    "nome": "Ligação Viária Pirituba-Lapa",
    "descricao": "-",
    "localizacao": "Av. Raimundo Pereira de Magalhães, 1050",
    "id_programa": 1,
    "id_distrito": 48,
    "subprefeitura": "Lapa ",
    "latitude": -23.5090995,
    "longitude": -46.7151821,
    "prioritario": false
  },
  {
    "codigo": "35",
    "nome": "Reconversão Urbana Largo da Batata Fase 3",
    "descricao": "Remanescentes Largo do Batata",
    "localizacao": "Rua eugenio de medeiros",
    "id_programa": 4,
    "id_distrito": 63,
    "subprefeitura": "Pinheiros ",
    "latitude": -23.5679403,
    "longitude": -46.7004483,
    "prioritario": false
  },
  {
    "codigo": "36",
    "nome": "Cine Artpalácio",
    "descricao": "A definir",
    "localizacao": "Av. São João, 419",
    "id_programa": 7,
    "id_distrito": 80,
    "subprefeitura": null,
    "latitude": -23.543823,
    "longitude": -46.638757,
    "prioritario": false
  },
  {
    "codigo": "37",
    "nome": "Novo Mobiliário Urbano - Abrigos",
    "descricao": "A definir",
    "localizacao": "praça do patriarca, 96",
    "id_programa": 15,
    "id_distrito": 80,
    "subprefeitura": "SÉ",
    "latitude": -23.5472554,
    "longitude": -46.636546,
    "prioritario": false
  },
  {
    "codigo": "38",
    "nome": "Descomplica São Miguel",
    "descricao": "Projeto piloto que possibilitará expansão de outras 32 unidades",
    "localizacao": "Rua Dona Ana Flora Pinheiro de Sousa, 76 - Vila Jacui, São Paulo - SP, 08060-150",
    "id_programa": 8,
    "id_distrito": 76,
    "subprefeitura": "São Miguel Paulista ",
    "latitude": -23.5003366,
    "longitude": -46.4514877,
    "prioritario": false
  },
  {
    "codigo": "39",
    "nome": "Auro Soares de Moura Andrade - Viário",
    "descricao": "Prolongamento da Av. Auro Soares de M. Andrade até a Av. Santa Marina",
    "localizacao": "Av auro soares de moura andrade, ",
    "id_programa": 1,
    "id_distrito": 6,
    "subprefeitura": "Lapa ",
    "latitude": -23.525111,
    "longitude": -46.67728,
    "prioritario": false
  },
  {
    "codigo": "40",
    "nome": "Área 40 - São Miguel Paulista",
    "descricao": "Urbanização viária do centro de São Miguel Paulista em parceria com a Bloomberg Philanthropies",
    "localizacao": "Praça Padre Aleixo Monteiro Mafra, 12 - São Miguel Paulista",
    "id_programa": 7,
    "id_distrito": 76,
    "subprefeitura": "São Miguel Paulista ",
    "latitude": -23.4921753,
    "longitude": -46.4450832,
    "prioritario": false
  },
  {
    "codigo": "43",
    "nome": "Gasômetro",
    "descricao": "Obras complementares para enterramento da fiação aérea e retirada dos postes da região",
    "localizacao": "Rua do Gasômetro",
    "id_programa": 3,
    "id_distrito": 80,
    "subprefeitura": null,
    "latitude": -23.543959,
    "longitude": -46.6218227,
    "prioritario": false
  },
  {
    "codigo": "45",
    "nome": "teste",
    "descricao": "teste",
    "localizacao": "praça do patriarca 96",
    "id_programa": 7,
    "id_distrito": 7,
    "subprefeitura": null,
    "latitude": -23.5472554,
    "longitude": -46.636546,
    "prioritario": false
  },
  {
    "codigo": "46",
    "nome": "teste 2",
    "descricao": "teste ",
    "localizacao": "praça do patriarca",
    "id_programa": 7,
    "id_distrito": 7,
    "subprefeitura": null,
    "latitude": -23.5472873,
    "longitude": -46.6367521,
    "prioritario": false
  },
  {
    "codigo": "47",
    "nome": "Ciclopassarela Eusébio Matoso",
    "descricao": "Ponte/Viaduto sobre o rio e marginal pinheiros",
    "localizacao": "ponte eusébio matoso",
    "id_programa": 4,
    "id_distrito": 63,
    "subprefeitura": null,
    "latitude": -23.5723112,
    "longitude": -46.7003722,
    "prioritario": false
  },
  {
    "codigo": "48",
    "nome": "teste 3",
    "descricao": "teste 3",
    "localizacao": "praça do patriarca 96",
    "id_programa": 7,
    "id_distrito": 7,
    "subprefeitura": null,
    "latitude": -23.5472554,
    "longitude": -46.636546,
    "prioritario": false
  },
  {
    "codigo": "49",
    "nome": "teste plano de ação",
    "descricao": "teste",
    "localizacao": "praça do patriarca 96",
    "id_programa": 7,
    "id_distrito": 7,
    "subprefeitura": null,
    "latitude": -23.5472554,
    "longitude": -46.636546,
    "prioritario": false
  },
  {
    "codigo": "50",
    "nome": "Requalificação Urbana Santo Amaro (JK a Bandeirantes)",
    "descricao": "Melhoramentos Públicos na Avenida Santo Amaro, desde a Avenida Presidente Juscelino Kubitschek até a Avenida dos Bandeirantes",
    "localizacao": "Avenida Santo Amaro",
    "id_programa": 4,
    "id_distrito": 15,
    "subprefeitura": "Santo Amaro ",
    "latitude": -23.617729,
    "longitude": -46.6818226,
    "prioritario": false
  },
  {
    "codigo": "54",
    "nome": "Teste BIM",
    "descricao": "Projeto de Implantação do BIM na SPObras",
    "localizacao": "Av. São João, 473 20º andar",
    "id_programa": 7,
    "id_distrito": 80,
    "subprefeitura": null,
    "latitude": -23.5434188,
    "longitude": -46.6388599,
    "prioritario": false
  },
  {
    "codigo": "55",
    "nome": "Teste Fernando",
    "descricao": "teste",
    "localizacao": "praça do patriarca 96",
    "id_programa": 7,
    "id_distrito": 7,
    "subprefeitura": null,
    "latitude": -23.5472554,
    "longitude": -46.636546,
    "prioritario": false
  },
  {
    "codigo": "56",
    "nome": "Ciclovia Inajar",
    "descricao": "Implantação da Ciclovia Inajar de Souza no trecho compreendido entre a R. Edmundo Krug e Av. Arq. Roberto Aflalo",
    "localizacao": "Av Inajar de Souza 100",
    "id_programa": 5,
    "id_distrito": 29,
    "subprefeitura": "Freguesia / Brasilândia",
    "latitude": -23.458299,
    "longitude": -46.674916,
    "prioritario": false
  },
  {
    "codigo": "57",
    "nome": "Corredor Avenida Itapecerica (entre Terminal João Dias e Terminal Capelinha)",
    "descricao": "Implantação de estações para metodologia de cobrança por pré-embarque no Trecho do corredor de ônibus na Estrada de Itapecerica entre o Terminal João Dias e Terminal Capelinha.",
    "localizacao": "Estrada de Itapecerica",
    "id_programa": 5,
    "id_distrito": 85,
    "subprefeitura": "Campo Limpo ",
    "latitude": -23.6436782,
    "longitude": -46.7340257,
    "prioritario": false
  },
  {
    "codigo": "58",
    "nome": "Corredor Capão Redondo / Campo Limpo / Vila Sônia.",
    "descricao": "Implantação de Corredor exclusivo",
    "localizacao": "terminal capelinha",
    "id_programa": 5,
    "id_distrito": 19,
    "subprefeitura": "Campo Limpo ",
    "latitude": -23.6544914,
    "longitude": -46.7621691,
    "prioritario": false
  },
  {
    "codigo": "59",
    "nome": "Obras Complementares de Drenagem das Bacias dos Córregos Água Preta e Sumaré",
    "descricao": "Drenagem Complementar",
    "localizacao": "Av Pompeia",
    "id_programa": 1,
    "id_distrito": 61,
    "subprefeitura": "Lapa ",
    "latitude": -23.526858,
    "longitude": -46.682934,
    "prioritario": false
  },
  {
    "codigo": "60",
    "nome": "Corredor Avenida Amador Bueno - Jaime Torres",
    "descricao": "Implantação de Corredor de Ônibus",
    "localizacao": "Av. Amador Bueno da Veiga",
    "id_programa": 5,
    "id_distrito": 60,
    "subprefeitura": "Penha ",
    "latitude": -23.5226565,
    "longitude": -46.5241617,
    "prioritario": false
  },
  {
    "codigo": "61",
    "nome": "Corredor Avenida Imirim",
    "descricao": " Implantação de Corredor de Ônibus",
    "localizacao": "Av Imirim",
    "id_programa": 5,
    "id_distrito": 21,
    "subprefeitura": "Casa Verde ",
    "latitude": -23.4866205,
    "longitude": -46.6528885,
    "prioritario": false
  },
  {
    "codigo": "62",
    "nome": "Corredor Avenida Interlagos - trecho entre Avenidas Washington Luís e Atlântica",
    "descricao": "Implantação de Corredor de Ônibus",
    "localizacao": "Av. Interlagos",
    "id_programa": 5,
    "id_distrito": 16,
    "subprefeitura": "Santo Amaro ",
    "latitude": -23.6825033,
    "longitude": -46.689999,
    "prioritario": false
  },
  {
    "codigo": "63",
    "nome": "Requalificação Corredor Av. Santo Amaro (entre Av. Portugal e Term. João Dias)",
    "descricao": "Implantação de Corredor de Ônibus",
    "localizacao": "av santo amaro",
    "id_programa": 5,
    "id_distrito": 72,
    "subprefeitura": "Santo Amaro ",
    "latitude": -23.617729,
    "longitude": -46.6818226,
    "prioritario": false
  },
  {
    "codigo": "64",
    "nome": "Corredor Estrada M'Boi Mirim - Trecho entre Morro do Índio e Rua Humberto Marçal",
    "descricao": "Implantação de Corredor de Ônibus",
    "localizacao": "Av. M'Boi Mirim",
    "id_programa": 5,
    "id_distrito": 45,
    "subprefeitura": "M´Boi Mirim",
    "latitude": -23.6983898,
    "longitude": -46.7793831,
    "prioritario": false
  },
  {
    "codigo": "65",
    "nome": "Ciclopassarela \"Bernardo Goldfarb\"",
    "descricao": "Ciclo Passarela ligando os Distritos de Pinheiros ao Distrito do Butantã, permitindo a realização da travessia segura de pedestres e ciclistas.",
    "localizacao": "Ponte Bernardo Goldfarb",
    "id_programa": 4,
    "id_distrito": 63,
    "subprefeitura": "Pinheiros ",
    "latitude": -23.5717169,
    "longitude": -46.7014014,
    "prioritario": false
  },
  {
    "codigo": "66",
    "nome": "Acesso ao Terminal Pinheiros",
    "descricao": "Criação de uma terceira via, segregada, para acesso seguro ao Terminal de Ônibus e ao Estacionamento Subterrâneo.",
    "localizacao": "Av. das Nações Unidas",
    "id_programa": 4,
    "id_distrito": 63,
    "subprefeitura": "Pinheiros ",
    "latitude": -23.5660233,
    "longitude": -46.7027574,
    "prioritario": false
  },
  {
    "codigo": "67",
    "nome": "Descomplica Campo Limpo",
    "descricao": "Expansão do programa Descomplica para as unidades de Prefeituras Regionais",
    "localizacao": "Rua nossa senhora do bom conselho, 138",
    "id_programa": 8,
    "id_distrito": 17,
    "subprefeitura": "Campo Limpo ",
    "latitude": -23.6473177,
    "longitude": -46.7563332,
    "prioritario": false
  },
  {
    "codigo": "68",
    "nome": "Descomplica Butantã",
    "descricao": "Expansão do programa Descomplica para as unidades de Prefeituras Regionais ",
    "localizacao": "Rua Ulpiano da Costa Manso, 201",
    "id_programa": 8,
    "id_distrito": 12,
    "subprefeitura": "Butantã ",
    "latitude": -23.5883813,
    "longitude": -46.738105,
    "prioritario": false
  },
  {
    "codigo": "69",
    "nome": "Descomplica Santana/ Tucuruvi",
    "descricao": "Expansão do programa Descomplica para as unidades de Prefeituras Regionais ",
    "localizacao": "Av. Tucuruvi, 808",
    "id_programa": 8,
    "id_distrito": 84,
    "subprefeitura": "Santana / Tucuruvi",
    "latitude": -23.4816399,
    "longitude": -46.6043374,
    "prioritario": false
  },
  {
    "codigo": "70",
    "nome": "Autódromo de Interlagos - 2018",
    "descricao": "Obras complementares, instalações permanentes, reforma da pista e contratos diversos para o GP de Fórmula 1",
    "localizacao": "Av. Sen. Teotônio Vilela, 261",
    "id_programa": 11,
    "id_distrito": 81,
    "subprefeitura": "Capela do Socorro ",
    "latitude": -23.7032826,
    "longitude": -46.7002859,
    "prioritario": false
  },
  {
    "codigo": "77",
    "nome": "LARGO DA BATATA - Antigo",
    "descricao": "Largo da Batata",
    "localizacao": "LARGO DA BATATA",
    "id_programa": 4,
    "id_distrito": 63,
    "subprefeitura": "Pinheiros ",
    "latitude": -23.5665817,
    "longitude": -46.6943435,
    "prioritario": false
  },
  {
    "codigo": "80",
    "nome": "(TESTE) CORREDOR ITAQUERA",
    "descricao": "IMPLANTAÇÃO DO CORREDOR ITAQUERA",
    "localizacao": "AV. Itaquera",
    "id_programa": 5,
    "id_distrito": 36,
    "subprefeitura": null,
    "latitude": -23.5537567,
    "longitude": -46.4898454,
    "prioritario": false
  },
  {
    "codigo": "81",
    "nome": "(TESTE) Ligação Viária Pirituba Lapa",
    "descricao": "-",
    "localizacao": "Av. Raimundo Pereira de Magalhães, 1050",
    "id_programa": 1,
    "id_distrito": 48,
    "subprefeitura": null,
    "latitude": -23.5090995,
    "longitude": -46.7151821,
    "prioritario": false
  },
  {
    "codigo": "82",
    "nome": "(TESTE) ROMA",
    "descricao": "Prolongamento da Av. Jornalista Roberto Marinho até a Rodovia dos Imigrantes, construção de um parque linear e habitações de interesse social",
    "localizacao": "Av. Jornalista Roberto Marinho 4000, São Paulo",
    "id_programa": 2,
    "id_distrito": 72,
    "subprefeitura": "Santo Amaro ",
    "latitude": -23.6377148,
    "longitude": -46.6629742,
    "prioritario": false
  },
  {
    "codigo": "84",
    "nome": "(TESTE) CORREDOR SANTO AMARO",
    "descricao": "Implantação de Corredor de ônibus na Av. Santo Amaro",
    "localizacao": "Av. Santo Amaro",
    "id_programa": 4,
    "id_distrito": 15,
    "subprefeitura": null,
    "latitude": -23.617729,
    "longitude": -46.6818226,
    "prioritario": false
  },
  {
    "codigo": "85",
    "nome": "CORREDOR INAJAR DE SOUZA",
    "descricao": "Implantação de Corredor de Ônibus",
    "localizacao": "Av Inajar de Souza",
    "id_programa": 5,
    "id_distrito": 21,
    "subprefeitura": "Casa Verde ",
    "latitude": -23.4821461,
    "longitude": -46.676754,
    "prioritario": false
  },
  {
    "codigo": "86",
    "nome": "(TESTE) Chucri Zaidan",
    "descricao": "Prolongamento da Av. Chucri Zaidan e Complexo Viário Burle Marx - Ponte Laguna sobre o Rio Pinheiros",
    "localizacao": "Av. Dr. Chucri Zaidan, 902 - Vila Cordeiro, São Paulo - SP",
    "id_programa": 2,
    "id_distrito": 72,
    "subprefeitura": null,
    "latitude": -23.6215452,
    "longitude": -46.6996642,
    "prioritario": false
  },
  {
    "codigo": "87",
    "nome": "(TESTE) ÁREA 40",
    "descricao": "Urbanização viária em parceria com a Bloomberg Philanthropies",
    "localizacao": "SÃO JOÃO",
    "id_programa": 5,
    "id_distrito": 80,
    "subprefeitura": null,
    "latitude": 26.109508,
    "longitude": -80.351245,
    "prioritario": false
  },
  {
    "codigo": "88",
    "nome": "(TESTE) Autódromo de Interlagos",
    "descricao": "Autódromo Municipal - Programa ",
    "localizacao": "Av. Sen. Teotônio Vilela, 261",
    "id_programa": 11,
    "id_distrito": 81,
    "subprefeitura": null,
    "latitude": -23.7032826,
    "longitude": -46.7002859,
    "prioritario": false
  },
  {
    "codigo": "89",
    "nome": "Autódromo de Interlagos - 2019",
    "descricao": "Obras complementares, instalações permanentes e reforma da pista para o GP de Fórmula 1",
    "localizacao": "Av. Sen. Teotônio Vilela, 261",
    "id_programa": 11,
    "id_distrito": 81,
    "subprefeitura": "Capela do Socorro ",
    "latitude": -23.7032826,
    "longitude": -46.7002859,
    "prioritario": false
  },
  {
    "codigo": "90",
    "nome": "Descomplica Capela do Socorro",
    "descricao": "Expansão do programa Descomplica para as unidades de Prefeituras Regionais",
    "localizacao": "R. Cassiano dos Santos, 499",
    "id_programa": 8,
    "id_distrito": 81,
    "subprefeitura": "Capela do Socorro ",
    "latitude": -23.7205338,
    "longitude": -46.701722,
    "prioritario": false
  },
  {
    "codigo": "91",
    "nome": "Descomplica Jabaquara",
    "descricao": "Expansão do programa Descomplica para as unidades de Prefeituras Regionais",
    "localizacao": "Av. Engº Armando de Arruda Pereira, 2314",
    "id_programa": 8,
    "id_distrito": 37,
    "subprefeitura": "Jabaquara ",
    "latitude": -23.6479336,
    "longitude": -46.6404037,
    "prioritario": false
  },
  {
    "codigo": "92",
    "nome": "(TESTE) Corredor Radial",
    "descricao": "Implantação de Corredor de Ônibus",
    "localizacao": "av Radial Leste",
    "id_programa": 5,
    "id_distrito": 10,
    "subprefeitura": null,
    "latitude": -23.532303,
    "longitude": -46.5289009,
    "prioritario": false
  },
  {
    "codigo": "93",
    "nome": "Corredor Radial III",
    "descricao": "Implantação de Corredor de Ônibus",
    "localizacao": "Av. David Domingues Ferreira, 1000",
    "id_programa": 5,
    "id_distrito": 36,
    "subprefeitura": "Itaquera ",
    "latitude": -23.5296627,
    "longitude": -46.4471188,
    "prioritario": false
  },
  {
    "codigo": "94",
    "nome": "Corredor Radial II",
    "descricao": "Implantação de Corredor de Ônibus",
    "localizacao": "Av. Radial Leste 2100",
    "id_programa": 5,
    "id_distrito": 93,
    "subprefeitura": "Penha ",
    "latitude": -23.5329784,
    "longitude": -46.5367665,
    "prioritario": false
  },
  {
    "codigo": "95",
    "nome": "BRT Radial I",
    "descricao": "Implantação de Corredor de Ônibus",
    "localizacao": "av radial Leste",
    "id_programa": 5,
    "id_distrito": 54,
    "subprefeitura": "Mooca ",
    "latitude": -23.54518,
    "longitude": -46.596229,
    "prioritario": false
  },
  {
    "codigo": "96",
    "nome": "Corredor BRT - Aricanduva",
    "descricao": "Implantação de Corredor de Ônibus",
    "localizacao": "av Aricanduva",
    "id_programa": 5,
    "id_distrito": 4,
    "subprefeitura": "Aricanduva ",
    "latitude": -23.5666589,
    "longitude": -46.5072054,
    "prioritario": false
  },
  {
    "codigo": "97",
    "nome": "Corredor Itaim Paulista - São Mateus",
    "descricao": "Implantação de Corredor de Ônibus",
    "localizacao": "Av Ragueb Choffi",
    "id_programa": 5,
    "id_distrito": 75,
    "subprefeitura": "São Mateus ",
    "latitude": -23.5947711,
    "longitude": -46.4450806,
    "prioritario": false
  },
  {
    "codigo": "98",
    "nome": "Corredor Bandeirantes",
    "descricao": "Implantação de Corredor de Ônibus",
    "localizacao": "Av. Bandeirantes",
    "id_programa": 5,
    "id_distrito": 15,
    "subprefeitura": "Santo Amaro ",
    "latitude": -23.6123869,
    "longitude": -46.6719384,
    "prioritario": false
  },
  {
    "codigo": "99",
    "nome": "Morro do S - Corredor Carlos Caldeira",
    "descricao": "Implantação de Corredor de Ônibus",
    "localizacao": "Av. Carlos Caldeira",
    "id_programa": 5,
    "id_distrito": 17,
    "subprefeitura": "Campo Limpo ",
    "latitude": -23.6460794,
    "longitude": -46.7533527,
    "prioritario": false
  },
  {
    "codigo": "100",
    "nome": "Ligação Viária Graúna - Gaivotas",
    "descricao": "Implantação de viário, com ponte permitindo ligação entre bairros",
    "localizacao": "Rua Rubens de Oliveira",
    "id_programa": 5,
    "id_distrito": 30,
    "subprefeitura": "Capela do Socorro ",
    "latitude": -23.740626,
    "longitude": -46.6662588,
    "prioritario": false
  },
  {
    "codigo": "101",
    "nome": "Requalificação de Calçadas",
    "descricao": "Requalificação de calçadas",
    "localizacao": "Sé",
    "id_programa": 7,
    "id_distrito": 80,
    "subprefeitura": null,
    "latitude": 37.09024,
    "longitude": -95.712891,
    "prioritario": false
  },
  {
    "codigo": "102",
    "nome": "Descomplica São Mateus",
    "descricao": "Expansão do programa Descomplica para as unidades de Prefeituras Regionais",
    "localizacao": "Av. Ragueb Chohfi, 1.400",
    "id_programa": 8,
    "id_distrito": 75,
    "subprefeitura": "São Mateus ",
    "latitude": -23.5998007,
    "longitude": -46.4690028,
    "prioritario": false
  },
  {
    "codigo": "103",
    "nome": "Descomplica Penha",
    "descricao": "Expansão do programa Descomplica para as unidades de Prefeituras Regionais",
    "localizacao": "R. Candapuí, 492",
    "id_programa": 8,
    "id_distrito": 60,
    "subprefeitura": "Penha ",
    "latitude": -23.5186794,
    "longitude": -46.521148,
    "prioritario": false
  },
  {
    "codigo": "104",
    "nome": "Viaduto Marginal Pinheiros",
    "descricao": "Viaduto T5 da Marginal Pinheiros ",
    "localizacao": "Av. das Nações Unidas, 4889 - Vila Hamburguesa, São Paulo - SP, 05425-070",
    "id_programa": 16,
    "id_distrito": 2,
    "subprefeitura": "Pinheiros ",
    "latitude": -23.5486412,
    "longitude": -46.7283373,
    "prioritario": false
  },
  {
    "codigo": "105",
    "nome": "Parque Minhocão",
    "descricao": "Implantação de Parque Público",
    "localizacao": "Elevado Presidente João Goulart",
    "id_programa": 7,
    "id_distrito": 70,
    "subprefeitura": "SÉ",
    "latitude": -23.5360278,
    "longitude": -46.6516218,
    "prioritario": false
  },
  {
    "codigo": "106",
    "nome": "Ponte Jânio Quadros (Vila Maria)",
    "descricao": "Manutenção de Obras de Arte Especiais do Município de São Paulo",
    "localizacao": "Ponte Jânio Quadros",
    "id_programa": 16,
    "id_distrito": 54,
    "subprefeitura": "Mooca ",
    "latitude": -23.5273493,
    "longitude": -46.5967646,
    "prioritario": false
  },
  {
    "codigo": "107",
    "nome": "Ponte da Casa Verde",
    "descricao": "Manutenção de Obras de Arte Especiais do Município de São Paulo",
    "localizacao": "Pte. da Casa Verde, São Paulo ",
    "id_programa": 16,
    "id_distrito": 48,
    "subprefeitura": "Lapa ",
    "latitude": -23.5165363,
    "longitude": -46.6539715,
    "prioritario": false
  },
  {
    "codigo": "108",
    "nome": "Ponte Cruzeiro do Sul",
    "descricao": "Manutenção de Obras de Arte Especiais do Município de São Paulo",
    "localizacao": "Ponte Cruzeiro do Sul",
    "id_programa": 16,
    "id_distrito": 71,
    "subprefeitura": "Santana / Tucuruvi",
    "latitude": -23.5193621,
    "longitude": -46.6251826,
    "prioritario": false
  },
  {
    "codigo": "109",
    "nome": "Ponte Freguesia do Ó",
    "descricao": "Manutenção de Obras de Arte Especiais do Município de São Paulo",
    "localizacao": "Ponte Freguesia do Ó",
    "id_programa": 16,
    "id_distrito": 48,
    "subprefeitura": "Lapa ",
    "latitude": -23.5089559,
    "longitude": -46.6895931,
    "prioritario": false
  },
  {
    "codigo": "110",
    "nome": "Ponte do Tatuapé",
    "descricao": "Manutenção de Obras de Arte Especiais do Município de São Paulo",
    "localizacao": "Ponte do Tatuapé",
    "id_programa": 16,
    "id_distrito": 82,
    "subprefeitura": "Mooca ",
    "latitude": -23.528898,
    "longitude": -46.584839,
    "prioritario": false
  },
  {
    "codigo": "111",
    "nome": "Ponte das Bandeiras",
    "descricao": "Manutenção de Obras de Arte Especiais do Município de São Paulo",
    "localizacao": "Ponte das Bandeiras",
    "id_programa": 16,
    "id_distrito": 9,
    "subprefeitura": "SÉ",
    "latitude": -23.5187464,
    "longitude": -46.6300234,
    "prioritario": false
  },
  {
    "codigo": "112",
    "nome": "Viaduto Grande São Paulo",
    "descricao": "Manutenção de Obras de Arte Especiais do Município de São Paulo",
    "localizacao": "Viaduto Grande São Paulo",
    "id_programa": 16,
    "id_distrito": 33,
    "subprefeitura": "Ipiranga ",
    "latitude": -23.5875076,
    "longitude": -46.5931149,
    "prioritario": false
  },
  {
    "codigo": "113",
    "nome": "Ponte Cidade Jardim / Ponte Engenheiro Roberto Rossi Zuccolo",
    "descricao": "Manutenção de Obras de Arte Especiais do Município de São Paulo",
    "localizacao": "Ponte Cidade Jardim",
    "id_programa": 16,
    "id_distrito": 63,
    "subprefeitura": "Pinheiros ",
    "latitude": -23.5830472,
    "longitude": -46.6863545,
    "prioritario": false
  },
  {
    "codigo": "114",
    "nome": "Ponte Eusébio Matoso",
    "descricao": "Manutenção de Obras de Arte Especiais do Município de São Paulo",
    "localizacao": "Ponte Eusébio Matoso",
    "id_programa": 16,
    "id_distrito": 63,
    "subprefeitura": "Pinheiros ",
    "latitude": -23.572184,
    "longitude": -46.7010993,
    "prioritario": false
  },
  {
    "codigo": "115",
    "nome": "Viaduto Gazeta do Ipiranga",
    "descricao": "Manutenção de Obras de Arte Especiais do Município de São Paulo",
    "localizacao": "Viaduto Gazeta do Ipiranga",
    "id_programa": 16,
    "id_distrito": 33,
    "subprefeitura": "Ipiranga ",
    "latitude": -23.5902548,
    "longitude": -46.6070468,
    "prioritario": false
  },
  {
    "codigo": "116",
    "nome": "Viaduto General Olímpio da Silveira",
    "descricao": "Manutenção de Obras de Arte Especiais do Município de São Paulo",
    "localizacao": "Viaduto General Olímpio da Silveira",
    "id_programa": 16,
    "id_distrito": 70,
    "subprefeitura": "SÉ",
    "latitude": -23.5319626,
    "longitude": -46.6598735,
    "prioritario": false
  },
  {
    "codigo": "117",
    "nome": "Ponte Cidade Universitária",
    "descricao": "Manutenção de Obras de Arte Especiais do Município de São Paulo",
    "localizacao": "Ponte Cidade Universitária",
    "id_programa": 16,
    "id_distrito": 12,
    "subprefeitura": "Butantã ",
    "latitude": -23.5582886,
    "longitude": -46.7115218,
    "prioritario": false
  },
  {
    "codigo": "118",
    "nome": "Viaduto Miguel Mofarrej",
    "descricao": "Manutenção de Obras de Arte Especiais do Município de São Paulo",
    "localizacao": "Viaduto Miguel Mofarrej",
    "id_programa": 16,
    "id_distrito": 48,
    "subprefeitura": "Lapa ",
    "latitude": -23.524923,
    "longitude": -46.7411299,
    "prioritario": false
  },
  {
    "codigo": "119",
    "nome": "Viaduto Carlos Ferraci",
    "descricao": "Manutenção de Obras de Arte Especiais do Município de São Paulo",
    "localizacao": "Viaduto Carlos Ferraci",
    "id_programa": 16,
    "id_distrito": 82,
    "subprefeitura": "Mooca ",
    "latitude": -23.53889,
    "longitude": -46.5714584,
    "prioritario": false
  },
  {
    "codigo": "120",
    "nome": "Viaduto Bresser",
    "descricao": "Manutenção de Obras de Arte Especiais do Município de São Paulo",
    "localizacao": "Viaduto Bresser",
    "id_programa": 16,
    "id_distrito": 54,
    "subprefeitura": "Mooca ",
    "latitude": -23.5426713,
    "longitude": -46.6067054,
    "prioritario": false
  },
  {
    "codigo": "121",
    "nome": "Viaduto Glicério",
    "descricao": "Manutenção de Obras de Arte Especiais do Município de São Paulo",
    "localizacao": "Viaduto Glicério",
    "id_programa": 16,
    "id_distrito": 80,
    "subprefeitura": "SÉ",
    "latitude": -23.5564714,
    "longitude": -46.6308708,
    "prioritario": false
  },
  {
    "codigo": "122",
    "nome": "Requalificação e Reurbanização do Vale do Anhangabaú e Entorno",
    "descricao": "Obras de Requalificação e Reurbanização do Vale do Anhangabaú e Entorno",
    "localizacao": "Vale do Anhangabaú",
    "id_programa": 23,
    "id_distrito": 80,
    "subprefeitura": "SÉ",
    "latitude": -23.54529,
    "longitude": -46.636667,
    "prioritario": false
  },
  {
    "codigo": "123",
    "nome": "Ponte Dutra",
    "descricao": "Manutenção de Obras de Arte Especiais do Município de São Paulo",
    "localizacao": "Av. Presidente Dutra, 101 - parque novo mundo",
    "id_programa": 16,
    "id_distrito": 91,
    "subprefeitura": "Vila Maria / Vila Guilherme",
    "latitude": -23.5304476,
    "longitude": -46.592812,
    "prioritario": false
  },
  {
    "codigo": "124",
    "nome": "Pontilhão Itaim",
    "descricao": "Manutenção de Obras de Arte Especiais do Município de São Paulo",
    "localizacao": "R. Domingos de Martins Pachêco - 51",
    "id_programa": 16,
    "id_distrito": 35,
    "subprefeitura": "Itaim Paulista ",
    "latitude": -23.5101142,
    "longitude": -46.3833128,
    "prioritario": false
  },
  {
    "codigo": "125",
    "nome": "Ponte Jaguaré",
    "descricao": "Manutenção de Obras de Arte Especiais do Município de São Paulo",
    "localizacao": "Ponte Jaguaré",
    "id_programa": 16,
    "id_distrito": 48,
    "subprefeitura": "Lapa ",
    "latitude": -23.5458575,
    "longitude": -46.7345284,
    "prioritario": false
  },
  {
    "codigo": "126",
    "nome": "Viaduto Alcântara Machado",
    "descricao": "Manutenção de Obras de Arte Especiais do Município de São Paulo",
    "localizacao": "Viaduto Alcântara Machado",
    "id_programa": 16,
    "id_distrito": 10,
    "subprefeitura": "Mooca ",
    "latitude": -23.5525457,
    "longitude": -46.6106798,
    "prioritario": false
  },
  {
    "codigo": "127",
    "nome": "Pontilhão Córrego Três Pontes",
    "descricao": "Manutenção de Obra de Arte",
    "localizacao": "R. Benígno Nogueira Franco, 27 ",
    "id_programa": 16,
    "id_distrito": 35,
    "subprefeitura": "Itaim Paulista ",
    "latitude": -23.490369,
    "longitude": -46.3737179,
    "prioritario": false
  },
  {
    "codigo": "128",
    "nome": "Descomplica Galeria Prestes Maia",
    "descricao": "Expansão do programa Descomplica para as unidades de Prefeituras Regionais",
    "localizacao": "Galeria Prestes Maia",
    "id_programa": 8,
    "id_distrito": 80,
    "subprefeitura": null,
    "latitude": -23.547535,
    "longitude": -46.636502,
    "prioritario": false
  },
  {
    "codigo": "129",
    "nome": "Descomplica Cidade Tiradentes",
    "descricao": "Expansão do programa Descomplica para as unidades de Prefeituras Regionais",
    "localizacao": "Av Ragueb Chohfi 7001",
    "id_programa": 8,
    "id_distrito": 25,
    "subprefeitura": "Cidade Tiradentes ",
    "latitude": -23.583146,
    "longitude": -46.415115,
    "prioritario": false
  },
  {
    "codigo": "130",
    "nome": "INSPEÇÕES ESPECIAIS FASE 01",
    "descricao": "RELATÓRIO FINANCEIRO DE INSPEÇÕES ESPECIAIS FASE 1",
    "localizacao": "GALERIA OLIDO",
    "id_programa": 16,
    "id_distrito": 7,
    "subprefeitura": null,
    "latitude": -23.5433582,
    "longitude": -46.6387973,
    "prioritario": false
  },
  {
    "codigo": "131",
    "nome": "Calçadão Triângulo Histórico",
    "descricao": "Reforma dos pavimentos das calçadas e calçadões, implantação de sinalização turística e ambiental, melhorias no mobiliário urbano e iluminação, drenagem e valas técnicas para Telecom.",
    "localizacao": "Rua São Bento ",
    "id_programa": 23,
    "id_distrito": 80,
    "subprefeitura": "SÉ",
    "latitude": -23.5466949,
    "longitude": -46.6354718,
    "prioritario": false
  },
  {
    "codigo": "134",
    "nome": "Chucri Zaidan - FASE 2",
    "descricao": "Implantação de túnel, adequações viárias (especialmente em frente ao Shopping Morumbi) e paisagismo e urbanismo ao longo da via.",
    "localizacao": "Av. Dr. Chucri Zaidan, 902",
    "id_programa": 2,
    "id_distrito": 72,
    "subprefeitura": "Santo Amaro ",
    "latitude": -23.62157,
    "longitude": -46.699859,
    "prioritario": false
  },
  {
    "codigo": "135",
    "nome": "Passarela Pacaembú",
    "descricao": "Obra de Manutenção da OAE",
    "localizacao": "Viaduto Pacaembu",
    "id_programa": 16,
    "id_distrito": 6,
    "subprefeitura": "Lapa ",
    "latitude": -23.5260438,
    "longitude": -46.6604594,
    "prioritario": false
  },
  {
    "codigo": "136",
    "nome": "Ligação Leste - Oeste - Passagem Sob a Praça Roosevelt)",
    "descricao": "Reparo de Viga no Acesso a  Radial Leste",
    "localizacao": "praça franklin roosevelt",
    "id_programa": 16,
    "id_distrito": 67,
    "subprefeitura": "SÉ",
    "latitude": -23.5485155,
    "longitude": -46.646334,
    "prioritario": false
  },
  {
    "codigo": "137",
    "nome": "Complexo Viário Aurélio Batista Félix - Jacu Pêssego",
    "descricao": "Serviços de substituição das atuais juntas de dilatação danificadas por novas juntas de dilatação elastoméricas nas estruturas de concreto dos viadutos",
    "localizacao": "Avenida dos Trabalhadores",
    "id_programa": 16,
    "id_distrito": 76,
    "subprefeitura": "São Miguel Paulista ",
    "latitude": -23.482121,
    "longitude": -46.452378,
    "prioritario": false
  },
  {
    "codigo": "138",
    "nome": "Viaduto República da Armênia",
    "descricao": "Serviços de substituição das atuais juntas de dilatação danificadas por novas juntas de dilatação elastoméricas nas estruturas de concreto dos viadutos",
    "localizacao": "Avenida dos Bandeirantes",
    "id_programa": 16,
    "id_distrito": 63,
    "subprefeitura": "Pinheiros ",
    "latitude": -23.596435,
    "longitude": -46.691323,
    "prioritario": false
  },
  {
    "codigo": "139",
    "nome": "Viaduto Engenheiro Alberto Badra",
    "descricao": "Manutenção de Obras de Arte Especiais do Município de São Paulo",
    "localizacao": "Viaduto Engenheiro Alberto Badra",
    "id_programa": 16,
    "id_distrito": 4,
    "subprefeitura": "Aricanduva ",
    "latitude": -23.5325651,
    "longitude": -46.5506595,
    "prioritario": false
  },
  {
    "codigo": "140",
    "nome": "Viaduto Brigadeiro Luiz Antônio",
    "descricao": "Manutenção de Obras de Arte Especiais do Município de São Paulo",
    "localizacao": "Viaduto Brigadeiro Luiz Antônio",
    "id_programa": 16,
    "id_distrito": 7,
    "subprefeitura": "SÉ",
    "latitude": -23.551559,
    "longitude": -46.6372442,
    "prioritario": false
  },
  {
    "codigo": "141",
    "nome": "Viaduto General Euclides Figueiredo",
    "descricao": "Manutenção de Obras de Arte Especiais do Município de São Paulo",
    "localizacao": "Viaduto General Euclides Figueiredo",
    "id_programa": 16,
    "id_distrito": 53,
    "subprefeitura": "Vila Mariana ",
    "latitude": -23.5842968,
    "longitude": -46.6536584,
    "prioritario": false
  },
  {
    "codigo": "142",
    "nome": "Viaduto Jabaquara",
    "descricao": "Manutenção de Obras de Arte Especiais do Município de São Paulo",
    "localizacao": "Viaduto Jabaquara",
    "id_programa": 16,
    "id_distrito": 79,
    "subprefeitura": "Vila Mariana ",
    "latitude": -23.6302388,
    "longitude": -46.6467057,
    "prioritario": false
  },
  {
    "codigo": "143",
    "nome": "Viaduto João Julião C. Aguiar",
    "descricao": "Manutenção de Obras de Arte Especiais do Município de São Paulo",
    "localizacao": "Viaduto João Julião C. Aguiar",
    "id_programa": 16,
    "id_distrito": 53,
    "subprefeitura": "Vila Mariana ",
    "latitude": -23.6175205,
    "longitude": -46.6617383,
    "prioritario": false
  },
  {
    "codigo": "144",
    "nome": "Viaduto Pedro de Toledo",
    "descricao": "Manutenção de Obras de Arte Especiais do Município de São Paulo",
    "localizacao": "Viaduto Pedro de Toledo",
    "id_programa": 16,
    "id_distrito": 92,
    "subprefeitura": "Vila Mariana ",
    "latitude": -23.598078,
    "longitude": -46.646677,
    "prioritario": false
  },
  {
    "codigo": "145",
    "nome": "Ponte do Guarapiranga",
    "descricao": "Manutenção de Obras de Arte Especiais do Município de São Paulo",
    "localizacao": "Ponte do Guarapiranga",
    "id_programa": 16,
    "id_distrito": 45,
    "subprefeitura": "M´Boi Mirim",
    "latitude": -23.667109,
    "longitude": -46.724858,
    "prioritario": false
  },
  {
    "codigo": "146",
    "nome": "Ponte do Limão",
    "descricao": "Manutenção de Obras de Arte Especiais do Município de São Paulo",
    "localizacao": "Ponte do Limão",
    "id_programa": 16,
    "id_distrito": 21,
    "subprefeitura": "Casa Verde ",
    "latitude": -23.5152223,
    "longitude": -46.6667075,
    "prioritario": false
  },
  {
    "codigo": "147",
    "nome": "Viaduto Antônio Sanches de Larragoiti Júnior",
    "descricao": "Manutenção de Obras de Arte Especiais do Município de São Paulo",
    "localizacao": "Viaduto Antônio Sanches de Larragoiti Júnior",
    "id_programa": 16,
    "id_distrito": 89,
    "subprefeitura": "São Miguel Paulista ",
    "latitude": -23.5148784,
    "longitude": -46.4558687,
    "prioritario": false
  },
  {
    "codigo": "148",
    "nome": "Viaduto General Milton Tavares de Souza",
    "descricao": "Manutenção de Obras de Arte Especiais do Município de São Paulo",
    "localizacao": "Viaduto General Milton Tavares de Souza",
    "id_programa": 16,
    "id_distrito": 60,
    "subprefeitura": "Penha ",
    "latitude": -23.5157908,
    "longitude": -46.5544015,
    "prioritario": false
  },
  {
    "codigo": "149",
    "nome": "Viaduto Major Quedinho",
    "descricao": "Manutenção de Obras de Arte Especiais do Município de São Paulo",
    "localizacao": "Viaduto Major Quedinho",
    "id_programa": 16,
    "id_distrito": 7,
    "subprefeitura": "SÉ",
    "latitude": -23.5497655,
    "longitude": -46.6430772,
    "prioritario": false
  },
  {
    "codigo": "150",
    "nome": "Viaduto Naor Guelfi",
    "descricao": "Manutenção de Obras de Arte Especiais do Município de São Paulo",
    "localizacao": "Viaduto Major Quedinho",
    "id_programa": 16,
    "id_distrito": 7,
    "subprefeitura": "SÉ",
    "latitude": -23.5497655,
    "longitude": -46.6430772,
    "prioritario": false
  },
  {
    "codigo": "151",
    "nome": "Viaduto General Marcondes Salgado",
    "descricao": "Manutenção de Obras de Arte Especiais do Município de São Paulo",
    "localizacao": "Viaduto General Marcondes Salgado",
    "id_programa": 16,
    "id_distrito": 53,
    "subprefeitura": "Vila Mariana ",
    "latitude": -23.5851064,
    "longitude": -46.6531873,
    "prioritario": false
  },
  {
    "codigo": "152",
    "nome": "Ponte Aricanduva",
    "descricao": "Manutenção de Obras de Arte Especiais do Município de São Paulo",
    "localizacao": "Ponte Aricanduva",
    "id_programa": 16,
    "id_distrito": 91,
    "subprefeitura": "Vila Maria / Vila Guilherme",
    "latitude": -23.5230976,
    "longitude": -46.5582997,
    "prioritario": false
  },
  {
    "codigo": "153",
    "nome": "Viaduto Elias Nagib Brein",
    "descricao": "Manutenção de Obras de Arte Especiais do Município de São Paulo",
    "localizacao": "Viaduto Elias Nagib Brein",
    "id_programa": 16,
    "id_distrito": 48,
    "subprefeitura": "Lapa ",
    "latitude": -23.5188809,
    "longitude": -46.7001271,
    "prioritario": false
  },
  {
    "codigo": "154",
    "nome": "Viaduto Pacheco Chaves",
    "descricao": "Manutenção de Obras de Arte Especiais do Município de São Paulo",
    "localizacao": "Viaduto Pacheco Chaves",
    "id_programa": 16,
    "id_distrito": 95,
    "subprefeitura": "Vila Prudente ",
    "latitude": -23.5815734,
    "longitude": -46.596183,
    "prioritario": false
  },
  {
    "codigo": "155",
    "nome": "Viaduto Paraíso",
    "descricao": "Manutenção de Obras de Arte Especiais do Município de São Paulo",
    "localizacao": "Viaduto Paraíso",
    "id_programa": 16,
    "id_distrito": 92,
    "subprefeitura": "Vila Mariana ",
    "latitude": -23.5733845,
    "longitude": -46.6410439,
    "prioritario": false
  },
  {
    "codigo": "156",
    "nome": "Viaduto Washington Luiz",
    "descricao": "Manutenção de Obras de Arte Especiais do Município de São Paulo",
    "localizacao": "Viaduto Washington Luiz",
    "id_programa": 16,
    "id_distrito": 72,
    "subprefeitura": "Santo Amaro ",
    "latitude": -23.6435162,
    "longitude": -46.6724991,
    "prioritario": false
  },
  {
    "codigo": "157",
    "nome": "Ponte do Piqueri (Joelmir Beting)",
    "descricao": "Manutenção de Obras de Arte Especiais do Município de São Paulo",
    "localizacao": "PONTE DO PIQUERI (JOELMIR BETING)",
    "id_programa": 16,
    "id_distrito": 48,
    "subprefeitura": "Lapa ",
    "latitude": -23.5087896,
    "longitude": -46.7056216,
    "prioritario": false
  },
  {
    "codigo": "158",
    "nome": "Ponte João Dias",
    "descricao": "Manutenção de Obras de Arte Especiais do Município de São Paulo",
    "localizacao": "PONTE JOÃO DIAS",
    "id_programa": 16,
    "id_distrito": 72,
    "subprefeitura": "Santo Amaro ",
    "latitude": -23.6445221,
    "longitude": -46.7261735,
    "prioritario": false
  },
  {
    "codigo": "159",
    "nome": "Viaduto Ladeira do Xisto",
    "descricao": "Manutenção de Obras de Arte Especiais do Município de São Paulo",
    "localizacao": "Liga a Rua Américo Salvador Novelli à Rua Augusto Carlos Bauman",
    "id_programa": 16,
    "id_distrito": 36,
    "subprefeitura": "Itaquera ",
    "latitude": -23.536837,
    "longitude": -46.453364,
    "prioritario": false
  },
  {
    "codigo": "160",
    "nome": "Viaduto Deputado Luis Eduardo Magalhães",
    "descricao": "Manutenção de Obras de Arte Especiais do Município de São Paulo",
    "localizacao": "VIADUTO DEPUTADO LUIS EDUARDO MAGALHÃES",
    "id_programa": 16,
    "id_distrito": 15,
    "subprefeitura": "Santo Amaro ",
    "latitude": -23.6334872,
    "longitude": -46.669068,
    "prioritario": false
  },
  {
    "codigo": "161",
    "nome": "Viaduto Raimundo Pereira de Magalhães",
    "descricao": "Manutenção de Obras de Arte Especiais do Município de São Paulo",
    "localizacao": "VIADUTO RAIMUNDO PEREIRA DE MAGALHÃES",
    "id_programa": 16,
    "id_distrito": 64,
    "subprefeitura": "Pirituba / Jaraguá",
    "latitude": -23.4875337,
    "longitude": -46.7268607,
    "prioritario": false
  },
  {
    "codigo": "162",
    "nome": "Ponte Domingos Franciulli Netto",
    "descricao": "Manutenção de Obras de Arte Especiais do Município de São Paulo",
    "localizacao": "Ponte Domingos Desembargador Franciulli Netto (Tiquatira)",
    "id_programa": 16,
    "id_distrito": 60,
    "subprefeitura": "Penha ",
    "latitude": -23.5157908,
    "longitude": -46.5544015,
    "prioritario": false
  },
  {
    "codigo": "163",
    "nome": "Ponte dos Remédios",
    "descricao": "Manutenção de Obras de Arte Especiais do Município de São Paulo",
    "localizacao": "PONTE DOS REMÉDIOS",
    "id_programa": 16,
    "id_distrito": 90,
    "subprefeitura": "Lapa ",
    "latitude": -23.5203236,
    "longitude": -46.7471395,
    "prioritario": false
  },
  {
    "codigo": "164",
    "nome": "Viaduto do Café",
    "descricao": "Manutenção de Obras de Arte Especiais do Município de São Paulo",
    "localizacao": "VIADUTO DO CAFÉ",
    "id_programa": 16,
    "id_distrito": 7,
    "subprefeitura": "SÉ",
    "latitude": -23.551356,
    "longitude": -46.64618,
    "prioritario": false
  },
  {
    "codigo": "165",
    "nome": "Viaduto São Carlos",
    "descricao": "Manutenção de Obras de Arte Especiais do Município de São Paulo",
    "localizacao": "VIADUTO SÃO CARLOS",
    "id_programa": 16,
    "id_distrito": 14,
    "subprefeitura": "SÉ",
    "latitude": -23.5671311,
    "longitude": -46.6038856,
    "prioritario": false
  },
  {
    "codigo": "166",
    "nome": "Viaduto José Colassuonno",
    "descricao": "Manutenção de Obras de Arte Especiais do Município de São Paulo",
    "localizacao": "Interligação entre a Avenida das Juntas Provisórias e a Avenida do Estado sobre o Canal do Rio Taman",
    "id_programa": 16,
    "id_distrito": 27,
    "subprefeitura": "Ipiranga ",
    "latitude": -23.58782,
    "longitude": -46.59741,
    "prioritario": false
  },
  {
    "codigo": "167",
    "nome": "Viaduto Doutor Plínio de Queiroz",
    "descricao": "Manutenção de Obras de Arte Especiais do Município de São Paulo",
    "localizacao": "Na Avenida 9 de Julho sobre a Praça 14 BIS - Cerqueira César",
    "id_programa": 16,
    "id_distrito": 7,
    "subprefeitura": "SÉ",
    "latitude": -23.555663,
    "longitude": -46.649717,
    "prioritario": false
  },
  {
    "codigo": "168",
    "nome": "Ponte Transamérica",
    "descricao": "Manutenção de Obras de Arte Especiais do Município de São Paulo",
    "localizacao": "Alça de Saída para a Avenida das Nações Unidas - Santo Amaro",
    "id_programa": 16,
    "id_distrito": 15,
    "subprefeitura": "Santo Amaro ",
    "latitude": -23.652625,
    "longitude": -46.723743,
    "prioritario": false
  },
  {
    "codigo": "169",
    "nome": "Viaduto Engenheiro Antônio de Carvalho Aguiar",
    "descricao": "Manutenção de Obras de Arte Especiais do Município de São Paulo",
    "localizacao": "Rua Cubatão, sobre a Avenida 23 de Maio - Paraíso",
    "id_programa": 16,
    "id_distrito": 92,
    "subprefeitura": "Vila Mariana ",
    "latitude": -23.576586,
    "longitude": -46.643371,
    "prioritario": false
  },
  {
    "codigo": "170",
    "nome": "Viaduto Engenheiro Orlando Murgel",
    "descricao": "Manutenção de Obras de Arte Especiais do Município de São Paulo",
    "localizacao": "Entre Avenida Rio Branco com Avenida Rudge",
    "id_programa": 16,
    "id_distrito": 9,
    "subprefeitura": "SÉ",
    "latitude": -23.528245,
    "longitude": -46.648244,
    "prioritario": false
  },
  {
    "codigo": "171",
    "nome": "Viaduto na Avenida Olavo Fontoura sobre a Avenida Assis Chateaubriand",
    "descricao": "Manutenção de Obras de Arte Especiais do Município de São Paulo",
    "localizacao": "Na Avenida Olavo Fontoura sobre a Avenida Assis Chateaubriand - Casa Verde Baixa",
    "id_programa": 16,
    "id_distrito": 21,
    "subprefeitura": "Casa Verde ",
    "latitude": -23.516034,
    "longitude": -46.651164,
    "prioritario": false
  },
  {
    "codigo": "172",
    "nome": "Viaduto João Beiçola",
    "descricao": "Manutenção de Obras de Arte Especiais do Município de São Paulo",
    "localizacao": "Av. Pedro Roschel Gottzfritz",
    "id_programa": 16,
    "id_distrito": 81,
    "subprefeitura": "Capela do Socorro ",
    "latitude": -23.714683,
    "longitude": -46.690927,
    "prioritario": false
  },
  {
    "codigo": "173",
    "nome": "Viaduto Domingos de Moraes",
    "descricao": "Manutenção de Obras de Arte Especiais do Município de São Paulo",
    "localizacao": "Interligação entre a Ponte Attilio Fontana e a Rua Monte Pascoal sobre a CPTM - Alto da Lapa.",
    "id_programa": 16,
    "id_distrito": 48,
    "subprefeitura": "Lapa ",
    "latitude": -23.516464,
    "longitude": -46.726009,
    "prioritario": false
  },
  {
    "codigo": "174",
    "nome": "Ponte Júlio de Mesquita Neto",
    "descricao": "Manutenção de Obras de Arte Especiais do Município de São Paulo",
    "localizacao": "Interligação entre Bairro Limão e o Parque Industrial Tomás Edson, próximo à saída da Avenida Presid",
    "id_programa": 16,
    "id_distrito": 21,
    "subprefeitura": "Casa Verde ",
    "latitude": -23.51359,
    "longitude": -46.679034,
    "prioritario": false
  },
  {
    "codigo": "175",
    "nome": "Viaduto Doutor Eduardo Saiegh (Santa Cruz)",
    "descricao": "Manutenção de Obras de Arte Especiais do Município de São Paulo",
    "localizacao": "Interligação entre a Rua Loefgreen e a Rua Santa Cruz sobre a Rua Ricardo Jafet - Saúde.",
    "id_programa": 16,
    "id_distrito": 92,
    "subprefeitura": "Vila Mariana ",
    "latitude": -23.599648,
    "longitude": -46.623964,
    "prioritario": false
  },
  {
    "codigo": "176",
    "nome": "Viaduto Rodovia Imigrantes",
    "descricao": "Manutenção de Obras de Arte Especiais do Município de São Paulo",
    "localizacao": "Avenida Professor Abrahão de Moraes sobre a Lagoa Aliperti-Bosque da Saúde.",
    "id_programa": 16,
    "id_distrito": 33,
    "subprefeitura": "Ipiranga ",
    "latitude": -23.636578,
    "longitude": -46.630262,
    "prioritario": false
  },
  {
    "codigo": "177",
    "nome": "Passarela Professor Doutor Emílio Athie (INCOR)",
    "descricao": "Manutenção de Obras de Arte Especiais do Município de São Paulo",
    "localizacao": "Transposição da Avenida Rebouças junto ao Hospital das Clínicas - Jardim Paulista.",
    "id_programa": 16,
    "id_distrito": 2,
    "subprefeitura": "Pinheiros ",
    "latitude": -23.55794,
    "longitude": -46.667333,
    "prioritario": false
  },
  {
    "codigo": "178",
    "nome": "Viaduto Ministro Aliomar Baleeiro",
    "descricao": "Manutenção de Obras de Arte Especiais do Município de São Paulo",
    "localizacao": "Na Avenida Affonso D’Escragnolle Taunay sobre a Avenida Professor Abraão de Morais – Água Funda.",
    "id_programa": 16,
    "id_distrito": 33,
    "subprefeitura": "Ipiranga ",
    "latitude": -23.629294,
    "longitude": -46.62977,
    "prioritario": false
  },
  {
    "codigo": "179",
    "nome": "Viaduto Borges Lagoa",
    "descricao": "Manutenção de Obras de Arte Especiais do Município de São Paulo",
    "localizacao": "Na Rua Borges Lagoa sobre a Avenida Rubem Berta – Vila Clementino.",
    "id_programa": 16,
    "id_distrito": 92,
    "subprefeitura": "Vila Mariana ",
    "latitude": -23.596446,
    "longitude": -46.65075,
    "prioritario": false
  },
  {
    "codigo": "180",
    "nome": "Viaduto Antonio Abdo (Conselheiro Carrão)",
    "descricao": "Manutenção de Obras de Arte Especiais do Município de São Paulo",
    "localizacao": " Interligação entre a Rua Antonio de Barros e a Avenida Conselheiro Carrão sobre Rua Melo Peixoto, a",
    "id_programa": 16,
    "id_distrito": 82,
    "subprefeitura": "Mooca ",
    "latitude": -23.53651,
    "longitude": -46.557612,
    "prioritario": false
  },
  {
    "codigo": "181",
    "nome": "Complexo Viário Escola de Engenharia Mackenzie",
    "descricao": "Manutenção de Obras de Arte Especiais do Município de São Paulo",
    "localizacao": "Complexo Viário Escola de Engenharia Mackenzie",
    "id_programa": 16,
    "id_distrito": 33,
    "subprefeitura": "Ipiranga ",
    "latitude": -23.603385,
    "longitude": -46.603469,
    "prioritario": false
  },
  {
    "codigo": "182",
    "nome": "Viaduto Cidade de Osaka",
    "descricao": "Manutenção de Obras de Arte Especiais do Município de São Paulo",
    "localizacao": "Rua Galvão Bueno, sobre a Avenida Radial Leste/Oeste - Liberdade",
    "id_programa": 16,
    "id_distrito": 49,
    "subprefeitura": "SÉ",
    "latitude": -23.556515,
    "longitude": -46.635173,
    "prioritario": false
  },
  {
    "codigo": "183",
    "nome": "Viaduto Engenheiro Luiz Alfredo Falcão Bauer (Ayrton Senna)",
    "descricao": "Manutenção de Obras de Arte Especiais do Município de São Paulo",
    "localizacao": "Avenida Jacu Pêssego/Nova Trabalhadores sobre a Avenida São Miguel - Vila Jacuí",
    "id_programa": 16,
    "id_distrito": 76,
    "subprefeitura": "São Miguel Paulista ",
    "latitude": -23.498597,
    "longitude": -46.456289,
    "prioritario": false
  },
  {
    "codigo": "184",
    "nome": "Viaduto Deputado Antônio Sylvio Cunha Bueno",
    "descricao": "Manutenção de Obras de Arte Especiais do Município de São Paulo",
    "localizacao": "Interligação entre a Rua Saturnino Pereira e a Rua Capitão Pucci sobre a CPTM - Guaianazes",
    "id_programa": 16,
    "id_distrito": 31,
    "subprefeitura": "Guaianazes ",
    "latitude": -23.543544,
    "longitude": -46.410525,
    "prioritario": false
  },
  {
    "codigo": "185",
    "nome": "Viaduto Condessa de São Joaquim",
    "descricao": "Manutenção de Obras de Arte Especiais do Município de São Paulo",
    "localizacao": "Prolongamento da Rua Condessa de São Joaquim até a Avenida da Liberdade sobre a Avenida 23 de Maio -",
    "id_programa": 16,
    "id_distrito": 49,
    "subprefeitura": "SÉ",
    "latitude": -23.55865,
    "longitude": -46.638599,
    "prioritario": false
  },
  {
    "codigo": "186",
    "nome": "Viaduto Dona Matilde",
    "descricao": "Manutenção de Obras de Arte Especiais do Município de São Paulo",
    "localizacao": "Prolongamento da Rua Maria Carlota até a Rua Joaquim Marra sobre a Rua Alvinópolis, a CPTM e a Aveni",
    "id_programa": 16,
    "id_distrito": 60,
    "subprefeitura": "Penha ",
    "latitude": -23.531779,
    "longitude": -46.527544,
    "prioritario": false
  },
  {
    "codigo": "187",
    "nome": "Complexo Viário Maria Maluf",
    "descricao": "Manutenção de Obras de Arte Especiais do Município de São Paulo",
    "localizacao": "COMPLEXO VIÁRIO MARIA MALUF",
    "id_programa": 16,
    "id_distrito": 33,
    "subprefeitura": "Ipiranga ",
    "latitude": -23.628006,
    "longitude": -46.628449,
    "prioritario": false
  },
  {
    "codigo": "188",
    "nome": "Complexo Viário Senador Antônio Emygdio de Barros Filho",
    "descricao": "Manutenção de Obras de Arte Especiais do Município de São Paulo",
    "localizacao": "COMPLEXO VIÁRIO SENADOR ANTÔNIO EMYGDIO DE BARROS FILHO",
    "id_programa": 16,
    "id_distrito": 95,
    "subprefeitura": "Vila Prudente ",
    "latitude": -23.582763,
    "longitude": -46.572802,
    "prioritario": false
  },
  {
    "codigo": "189",
    "nome": "Viaduto Guadalajara",
    "descricao": "Manutenção de Obras de Arte Especiais do Município de São Paulo",
    "localizacao": "VIADUTO GUADALAJARA",
    "id_programa": 16,
    "id_distrito": 54,
    "subprefeitura": "Mooca ",
    "latitude": -23.544083,
    "longitude": -46.59353,
    "prioritario": false
  },
  {
    "codigo": "190",
    "nome": "Viaduto Doutor Eusébio Stevaux",
    "descricao": "Manutenção de Obras de Arte Especiais do Município de São Paulo",
    "localizacao": "VIADUTO DOUTOR EUSÉBIO STEVAUX",
    "id_programa": 16,
    "id_distrito": 67,
    "subprefeitura": "SÉ",
    "latitude": -23.548917,
    "longitude": -46.639083,
    "prioritario": false
  },
  {
    "codigo": "191",
    "nome": "Complexo Viário Padre Adelino",
    "descricao": "Manutenção de Obras de Arte Especiais do Município de São Paulo",
    "localizacao": "COMPLEXO VIÁRIO PADRE ADELINO",
    "id_programa": 16,
    "id_distrito": 54,
    "subprefeitura": "Mooca ",
    "latitude": -23.543101,
    "longitude": -46.6127,
    "prioritario": false
  },
  {
    "codigo": "192",
    "nome": "Viaduto Gasômetro",
    "descricao": "Manutenção de Obras de Arte Especiais do Município de São Paulo",
    "localizacao": "VIADUTO GASÔMETRO",
    "id_programa": 16,
    "id_distrito": 54,
    "subprefeitura": "Mooca ",
    "latitude": -23.543931,
    "longitude": -46.621694,
    "prioritario": false
  },
  {
    "codigo": "193",
    "nome": "Ponte Jurubatuba",
    "descricao": "Manutenção de Obras de Arte Especiais do Município de São Paulo",
    "localizacao": "PONTE JURUBATUBA",
    "id_programa": 16,
    "id_distrito": 81,
    "subprefeitura": "Capela do Socorro ",
    "latitude": -23.68741,
    "longitude": -46.695622,
    "prioritario": false
  },
  {
    "codigo": "194",
    "nome": "Viaduto Austregésilo de Athayde",
    "descricao": "Manutenção de Obras de Arte Especiais do Município de São Paulo",
    "localizacao": "VIADUTO AUSTREGÉSILO DE ATHAYDE",
    "id_programa": 16,
    "id_distrito": 72,
    "subprefeitura": "Santo Amaro ",
    "latitude": -23.621905,
    "longitude": -46.6794,
    "prioritario": false
  },
  {
    "codigo": "195",
    "nome": "Ponte Vitorino Goulart da Silva",
    "descricao": "Manutenção de Obras de Arte Especiais do Município de São Paulo",
    "localizacao": "PONTE VITORINO GOULART DA SILVA",
    "id_programa": 16,
    "id_distrito": 81,
    "subprefeitura": "Capela do Socorro ",
    "latitude": -23.700532,
    "longitude": -46.684753,
    "prioritario": false
  },
  {
    "codigo": "196",
    "nome": "Ponte Santo Dias da Silva",
    "descricao": "Manutenção de Obras de Arte Especiais do Município de São Paulo",
    "localizacao": "PONTE SANTO DIAS DA SILVA",
    "id_programa": 16,
    "id_distrito": 81,
    "subprefeitura": "Capela do Socorro ",
    "latitude": -23.665043,
    "longitude": -46.710639,
    "prioritario": false
  },
  {
    "codigo": "197",
    "nome": "Viaduto Frederico Eduardo Mayr",
    "descricao": "Manutenção de Obras de Arte Especiais do Município de São Paulo",
    "localizacao": "VIADUTO FREDERICO EDUARDO MAYR",
    "id_programa": 16,
    "id_distrito": 17,
    "subprefeitura": "Campo Limpo ",
    "latitude": -23.644961,
    "longitude": -46.728982,
    "prioritario": false
  },
  {
    "codigo": "198",
    "nome": "Viaduto Honestino Monteiro Guimarães",
    "descricao": "Manutenção de Obras de Arte Especiais do Município de São Paulo",
    "localizacao": "VIADUTO HONESTINO MONTEIRO GUIMARÃES",
    "id_programa": 16,
    "id_distrito": 17,
    "subprefeitura": "Campo Limpo ",
    "latitude": -23.644276,
    "longitude": -46.729739,
    "prioritario": false
  },
  {
    "codigo": "199",
    "nome": "Ponte Morumbi",
    "descricao": "Manutenção de Obras de Arte Especiais do Município de São Paulo",
    "localizacao": "PONTE MORUMBI",
    "id_programa": 16,
    "id_distrito": 55,
    "subprefeitura": "Butantã ",
    "latitude": -23.618179,
    "longitude": -46.700859,
    "prioritario": false
  },
  {
    "codigo": "200",
    "nome": "Viaduto Doutor João Tranchesi",
    "descricao": "Manutenção de Obras de Arte Especiais do Município de São Paulo",
    "localizacao": "VIADUTO DOUTOR JOÃO TRANCHESI",
    "id_programa": 16,
    "id_distrito": 55,
    "subprefeitura": "Butantã ",
    "latitude": -23.618179,
    "longitude": -46.700859,
    "prioritario": false
  },
  {
    "codigo": "201",
    "nome": "Ponte Bernardo Goldfarb",
    "descricao": "Manutenção de Obras de Arte Especiais do Município de São Paulo",
    "localizacao": "PONTE BERNARDO GOLDFARB",
    "id_programa": 16,
    "id_distrito": 63,
    "subprefeitura": "Pinheiros ",
    "latitude": -23.57158,
    "longitude": -46.701128,
    "prioritario": false
  },
  {
    "codigo": "202",
    "nome": "Ponte Engenheiro Ary Torres",
    "descricao": "Manutenção de Obras de Arte Especiais do Município de São Paulo",
    "localizacao": "PONTE ENGENHEIRO ARY TORRES",
    "id_programa": 16,
    "id_distrito": 55,
    "subprefeitura": "Butantã ",
    "latitude": -23.59387,
    "longitude": -46.694093,
    "prioritario": false
  },
  {
    "codigo": "203",
    "nome": "Viaduto Cadeião",
    "descricao": "Manutenção de Obras de Arte Especiais do Município de São Paulo",
    "localizacao": "VIADUTO CADEIÃO",
    "id_programa": 16,
    "id_distrito": 48,
    "subprefeitura": "Lapa ",
    "latitude": -23.536289,
    "longitude": -46.743497,
    "prioritario": false
  },
  {
    "codigo": "204",
    "nome": "Viaduto Sumaré",
    "descricao": "Manutenção de Obras de Arte Especiais do Município de São Paulo",
    "localizacao": "VIADUTO SUMARÉ",
    "id_programa": 16,
    "id_distrito": 48,
    "subprefeitura": "Lapa ",
    "latitude": -23.550841,
    "longitude": -46.677569,
    "prioritario": false
  },
  {
    "codigo": "205",
    "nome": "Viaduto Antártica",
    "descricao": "Manutenção de Obras de Arte Especiais do Município de São Paulo",
    "localizacao": "VIADUTO ANTÁRTICA",
    "id_programa": 16,
    "id_distrito": 48,
    "subprefeitura": "Lapa ",
    "latitude": -23.526264,
    "longitude": -46.672081,
    "prioritario": false
  },
  {
    "codigo": "206",
    "nome": "Viaduto Deputado Ulysses Guimarães",
    "descricao": "Manutenção de Obras de Arte Especiais do Município de São Paulo",
    "localizacao": "VIADUTO DEPUTADO ULYSSES GUIMARÃES",
    "id_programa": 16,
    "id_distrito": 62,
    "subprefeitura": "Perus ",
    "latitude": -23.404989,
    "longitude": -46.753874,
    "prioritario": false
  },
  {
    "codigo": "207",
    "nome": "Viaduto Dona Mora Guimarães",
    "descricao": "Manutenção de Obras de Arte Especiais do Município de São Paulo",
    "localizacao": "VIADUTO DONA MORA GUIMARÃES",
    "id_programa": 16,
    "id_distrito": 62,
    "subprefeitura": "Perus ",
    "latitude": -23.405596,
    "longitude": -46.753185,
    "prioritario": false
  },
  {
    "codigo": "208",
    "nome": "Viaduto Doutor Arnaldo",
    "descricao": "Manutenção de Obras de Arte Especiais do Município de São Paulo",
    "localizacao": "VIADUTO DR. ARNALDO",
    "id_programa": 16,
    "id_distrito": 48,
    "subprefeitura": "Lapa ",
    "latitude": -23.549686,
    "longitude": -46.680013,
    "prioritario": false
  },
  {
    "codigo": "209",
    "nome": "Ponte Estaiada (Ponte Octávio Frias de Oliveira)",
    "descricao": "Manutenção de Obras de Arte Especiais do Município de São Paulo",
    "localizacao": "PONTE ESTAIADA (PONTE OCTÁVIO FRIAS DE OLIVEIRA)",
    "id_programa": 16,
    "id_distrito": 12,
    "subprefeitura": "Butantã ",
    "latitude": -23.612227,
    "longitude": -46.699542,
    "prioritario": false
  },
  {
    "codigo": "210",
    "nome": "Ponte Anhembi",
    "descricao": "Manutenção de Obras de Arte Especiais do Município de São Paulo",
    "localizacao": "PONTE ANHEMBI",
    "id_programa": 16,
    "id_distrito": 9,
    "subprefeitura": "SÉ",
    "latitude": -23.519158,
    "longitude": -46.640778,
    "prioritario": false
  },
  {
    "codigo": "211",
    "nome": "Ponte Estaiada (Ponte Governador Orestes Quércia)",
    "descricao": "Manutenção de Obras de Arte Especiais do Município de São Paulo",
    "localizacao": "PONTE ESTAIADA (PONTE GOVERNADOR ORESTES QUÉRCIA)",
    "id_programa": 16,
    "id_distrito": 9,
    "subprefeitura": "SÉ",
    "latitude": -23.519981,
    "longitude": -46.636635,
    "prioritario": false
  },
  {
    "codigo": "212",
    "nome": "Viaduto Trinta e Um de Março (Viaduto Therezinha Zerbini)",
    "descricao": "Manutenção de Obras de Arte Especiais do Município de São Paulo",
    "localizacao": "Viaduto Trinta e Um de Março (Viaduto Therezinha Zerbini)",
    "id_programa": 16,
    "id_distrito": 14,
    "subprefeitura": "SÉ",
    "latitude": -23.553962,
    "longitude": -46.62637,
    "prioritario": false
  },
  {
    "codigo": "213",
    "nome": "Ponte da Vila Guilherme (Engenheiro Curt Otto Baumgart)",
    "descricao": "Manutenção de Obras de Arte Especiais do Município de São Paulo",
    "localizacao": "Ponte da Vila Guilherme (Eng. Curt Otto Baumgart)",
    "id_programa": 16,
    "id_distrito": 91,
    "subprefeitura": "Vila Maria / Vila Guilherme",
    "latitude": -23.522901,
    "longitude": -46.611188,
    "prioritario": false
  },
  {
    "codigo": "214",
    "nome": "Ponte da Avenida Santos Dumont",
    "descricao": "Manutenção de Obras de Arte Especiais do Município de São Paulo",
    "localizacao": "PONTE DA AVENIDA SANTOS DUMONT",
    "id_programa": 16,
    "id_distrito": 9,
    "subprefeitura": "SÉ",
    "latitude": -23.524358,
    "longitude": -46.631044,
    "prioritario": false
  },
  {
    "codigo": "215",
    "nome": "Viaduto 25 de Março",
    "descricao": "Manutenção de Obras de Arte Especiais do Município de São Paulo",
    "localizacao": "VIADUTO 25 DE MARÇO",
    "id_programa": 16,
    "id_distrito": 80,
    "subprefeitura": "SÉ",
    "latitude": -23.548607,
    "longitude": -46.626683,
    "prioritario": false
  },
  {
    "codigo": "216",
    "nome": "Viaduto Antônio Nakashima",
    "descricao": "Manutenção de Obras de Arte Especiais do Município de São Paulo",
    "localizacao": "VIADUTO ANTÔNIO NAKASHIMA",
    "id_programa": 16,
    "id_distrito": 80,
    "subprefeitura": "SÉ",
    "latitude": -23.548089,
    "longitude": -46.628061,
    "prioritario": false
  },
  {
    "codigo": "217",
    "nome": "Viaduto Armando Puglisi (Armandinho do Bexiga)",
    "descricao": "Manutenção de Obras de Arte Especiais do Município de São Paulo",
    "localizacao": "Viaduto Armando Puglisi (Armandinho do Bexiga)",
    "id_programa": 16,
    "id_distrito": 26,
    "subprefeitura": "SÉ",
    "latitude": -23.562432,
    "longitude": -46.645854,
    "prioritario": false
  },
  {
    "codigo": "218",
    "nome": "Viaduto Engenheiro Romero Zander",
    "descricao": "Manutenção de Obras de Arte Especiais do Município de São Paulo",
    "localizacao": "VIADUTO ENGENHEIRO ROMERO ZANDER",
    "id_programa": 16,
    "id_distrito": 9,
    "subprefeitura": "SÉ",
    "latitude": -23.535617,
    "longitude": -46.63346,
    "prioritario": false
  },
  {
    "codigo": "219",
    "nome": "Viaduto Governador Roberto Abreu Sodré",
    "descricao": "Manutenção de Obras de Arte Especiais do Município de São Paulo",
    "localizacao": "Viaduto Governador Roberto Abreu Sodré",
    "id_programa": 16,
    "id_distrito": 14,
    "subprefeitura": "SÉ",
    "latitude": -23.553733,
    "longitude": -46.625204,
    "prioritario": false
  },
  {
    "codigo": "220",
    "nome": "Viaduto Doutor Manuel José Chaves",
    "descricao": "Manutenção de Obras de Arte Especiais do Município de São Paulo",
    "localizacao": "VIADUTO DOUTOR MANUEL JOSÉ CHAVES",
    "id_programa": 16,
    "id_distrito": 80,
    "subprefeitura": "SÉ",
    "latitude": -23.552689,
    "longitude": -46.63657,
    "prioritario": false
  },
  {
    "codigo": "221",
    "nome": "Viaduto General Couto de Magalhães",
    "descricao": "Manutenção de Obras de Arte Especiais do Município de São Paulo",
    "localizacao": "VIADUTO GENERAL COUTO DE MAGALHÃES",
    "id_programa": 16,
    "id_distrito": 9,
    "subprefeitura": "SÉ",
    "latitude": -23.534653,
    "longitude": -46.637056,
    "prioritario": false
  },
  {
    "codigo": "222",
    "nome": "Viaduto Guilherme de Almeida (Liberdade)",
    "descricao": "Manutenção de Obras de Arte Especiais do Município de São Paulo",
    "localizacao": "Viaduto Guilherme de Almeida (Liberdade)",
    "id_programa": 16,
    "id_distrito": 49,
    "subprefeitura": "SÉ",
    "latitude": -23.556447,
    "longitude": -46.636221,
    "prioritario": false
  },
  {
    "codigo": "223",
    "nome": "Viaduto dos Imigrantes",
    "descricao": "Manutenção de Obras de Arte Especiais do Município de São Paulo",
    "localizacao": "VIADUTO DOS IMIGRANTES",
    "id_programa": 16,
    "id_distrito": 92,
    "subprefeitura": "Vila Mariana ",
    "latitude": -23.591371,
    "longitude": -46.650977,
    "prioritario": false
  },
  {
    "codigo": "224",
    "nome": "Complexo Viário João Jorge Saad",
    "descricao": "Manutenção de Obras de Arte Especiais do Município de São Paulo",
    "localizacao": "COMPLEXO VIÁRIO JOÃO JORGE SAAD",
    "id_programa": 16,
    "id_distrito": 92,
    "subprefeitura": "Vila Mariana ",
    "latitude": -23.590849,
    "longitude": -46.649993,
    "prioritario": false
  },
  {
    "codigo": "225",
    "nome": "Viaduto Carlos de Campos",
    "descricao": "Manutenção de Obras de Arte Especiais do Município de São Paulo",
    "localizacao": "VIADUTO CARLOS DE CAMPOS",
    "id_programa": 16,
    "id_distrito": 60,
    "subprefeitura": "Penha ",
    "latitude": -23.532924,
    "longitude": -46.540366,
    "prioritario": false
  },
  {
    "codigo": "226",
    "nome": "Ponte de Arujá",
    "descricao": "Manutenção de Obras de Arte Especiais do Município de São Paulo",
    "localizacao": "PONTE DE ARUJÁ",
    "id_programa": 16,
    "id_distrito": 76,
    "subprefeitura": "São Miguel Paulista ",
    "latitude": -23.472863,
    "longitude": -46.423237,
    "prioritario": false
  },
  {
    "codigo": "227",
    "nome": "Ponte Senador José Ermírio de Moraes",
    "descricao": "Manutenção de Obras de Arte Especiais do Município de São Paulo",
    "localizacao": "PONTE SENADOR JOSÉ ERMÍRIO DE MORAES",
    "id_programa": 16,
    "id_distrito": 76,
    "subprefeitura": "São Miguel Paulista ",
    "latitude": -23.476194,
    "longitude": -46.434413,
    "prioritario": false
  },
  {
    "codigo": "228",
    "nome": "Viaduto Carlito Maia",
    "descricao": "Manutenção de Obras de Arte Especiais do Município de São Paulo",
    "localizacao": "VIADUTO CARLITO MAIA",
    "id_programa": 16,
    "id_distrito": 76,
    "subprefeitura": "São Miguel Paulista ",
    "latitude": -23.490338,
    "longitude": -46.393202,
    "prioritario": false
  },
  {
    "codigo": "229",
    "nome": "Viaduto da China (Viaduto Rosita Macedo de Andrade)",
    "descricao": "Manutenção de Obras de Arte Especiais do Município de São Paulo",
    "localizacao": "Viaduto da China (Viaduto Rosita Macedo de Andrade)",
    "id_programa": 16,
    "id_distrito": 76,
    "subprefeitura": "São Miguel Paulista ",
    "latitude": -23.493106,
    "longitude": -46.415364,
    "prioritario": false
  },
  {
    "codigo": "230",
    "nome": "Complexo Viário Jacú-Pêssego",
    "descricao": "Manutenção de Obras de Arte Especiais do Município de São Paulo",
    "localizacao": "Complexo Viário Jacú-Pêssego - Viaduto sobre a CPTM - Ayrton Senna",
    "id_programa": 16,
    "id_distrito": 76,
    "subprefeitura": "São Miguel Paulista ",
    "latitude": -23.49149,
    "longitude": -46.452549,
    "prioritario": false
  },
  {
    "codigo": "231",
    "nome": "Pontilhão Marginal Tiete Sobre a Avenida José Maria de Faria (Pontilhão Desemboque da Galeria José M",
    "descricao": "Manutenção de Obras de Arte Especiais do Município de São Paulo",
    "localizacao": "Pontilhão Marginal Tiete Sobre a Avenida José Maria de Faria (Pontilhão Desemboque da Galeria José M",
    "id_programa": 16,
    "id_distrito": 48,
    "subprefeitura": "Lapa ",
    "latitude": -23.508973,
    "longitude": -46.700864,
    "prioritario": false
  },
  {
    "codigo": "232",
    "nome": "Túnel Jânio Quadros (Avenida Tajuras)",
    "descricao": "Manutenção de Obras de Arte Especiais do Município de São Paulo",
    "localizacao": "Túnel Jânio Quadros (Av. Tajuras)",
    "id_programa": 16,
    "id_distrito": 55,
    "subprefeitura": "Butantã ",
    "latitude": -23.5877258,
    "longitude": -46.6934116,
    "prioritario": false
  },
  {
    "codigo": "233",
    "nome": "Viaduto Presidente João Goulart (Minhocão)",
    "descricao": "Manutenção de Obras de Arte Especiais do Município de São Paulo",
    "localizacao": "Viaduto Presidente João Goulart (Minhocão)",
    "id_programa": 16,
    "id_distrito": 67,
    "subprefeitura": "SÉ",
    "latitude": -23.548133,
    "longitude": -46.647481,
    "prioritario": false
  },
  {
    "codigo": "234",
    "nome": "Viaduto Beneficência Portuguesa (Antonio Ermirio de Moraes)",
    "descricao": "Manutenção de Obras de Arte Especiais do Município de São Paulo",
    "localizacao": "Viaduto Beneficência Portuguesa (Antonio Ermirio de Moraes)",
    "id_programa": 16,
    "id_distrito": 49,
    "subprefeitura": "SÉ",
    "latitude": -23.568594,
    "longitude": -46.640939,
    "prioritario": false
  },
  {
    "codigo": "235",
    "nome": "Passarela Ciccilo Matarazzo",
    "descricao": "Manutenção de Obras de Arte Especiais do Município de São Paulo",
    "localizacao": "Passarela Ciccilo Matarazzo",
    "id_programa": 16,
    "id_distrito": 53,
    "subprefeitura": "Vila Mariana ",
    "latitude": -23.589282,
    "longitude": -46.651687,
    "prioritario": false
  },
  {
    "codigo": "236",
    "nome": "Viaduto Diário Popular",
    "descricao": "Manutenção de Obras de Arte Especiais do Município de São Paulo",
    "localizacao": "Viaduto Diário Popular",
    "id_programa": 16,
    "id_distrito": 80,
    "subprefeitura": "SÉ",
    "latitude": -23.544837,
    "longitude": -46.626407,
    "prioritario": false
  },
  {
    "codigo": "237",
    "nome": "Viaduto Dona Paulina",
    "descricao": "Manutenção de Obras de Arte Especiais do Município de São Paulo",
    "localizacao": "Viaduto Dona Paulina",
    "id_programa": 16,
    "id_distrito": 80,
    "subprefeitura": "SÉ",
    "latitude": -23.552238,
    "longitude": -46.636791,
    "prioritario": false
  },
  {
    "codigo": "238",
    "nome": "Viaduto Florêncio de Abreu",
    "descricao": "Manutenção de Obras de Arte Especiais do Município de São Paulo",
    "localizacao": "Viaduto Florêncio de Abreu",
    "id_programa": 16,
    "id_distrito": 80,
    "subprefeitura": "SÉ",
    "latitude": -23.540671,
    "longitude": -46.632824,
    "prioritario": false
  },
  {
    "codigo": "239",
    "nome": "Viaduto Martinho Prado",
    "descricao": "Manutenção de Obras de Arte Especiais do Município de São Paulo",
    "localizacao": "Viaduto Martinho Prado",
    "id_programa": 16,
    "id_distrito": 26,
    "subprefeitura": "SÉ",
    "latitude": -23.55122,
    "longitude": -46.645774,
    "prioritario": false
  },
  {
    "codigo": "240",
    "nome": "Ponte Anhanguera (Attilio Fontana)",
    "descricao": "Manutenção de Obras de Arte Especiais do Município de São Paulo",
    "localizacao": "Ponte Anhanguera (Attilio Fontana)",
    "id_programa": 16,
    "id_distrito": 48,
    "subprefeitura": "Lapa ",
    "latitude": -23.514458,
    "longitude": -46.726584,
    "prioritario": false
  },
  {
    "codigo": "241",
    "nome": "Pontilhão Na Avenida Raimundo Pereira de Magalhães",
    "descricao": "Manutenção de Obras de Arte Especiais do Município de São Paulo",
    "localizacao": "Pontilhão Na Avenida Raimundo Pereira de Magalhães",
    "id_programa": 16,
    "id_distrito": 41,
    "subprefeitura": "Pirituba / Jaraguá",
    "latitude": -23.438621,
    "longitude": -46.721467,
    "prioritario": false
  },
  {
    "codigo": "242",
    "nome": "Viaduto do Chá",
    "descricao": "Manutenção de Obras de Arte Especiais do Município de São Paulo",
    "localizacao": "Viaduto do Chá",
    "id_programa": 16,
    "id_distrito": 80,
    "subprefeitura": "SÉ",
    "latitude": -23.546748,
    "longitude": -46.637723,
    "prioritario": false
  },
  {
    "codigo": "243",
    "nome": "Viaduto dos Bandeirantes",
    "descricao": "Manutenção de Obras de Arte Especiais do Município de São Paulo",
    "localizacao": "Viaduto dos Bandeirantes",
    "id_programa": 16,
    "id_distrito": 92,
    "subprefeitura": "Vila Mariana ",
    "latitude": -23.613063,
    "longitude": -46.670992,
    "prioritario": false
  },
  {
    "codigo": "244",
    "nome": "Viaduto Santa Efigênia",
    "descricao": "Manutenção de Obras de Arte Especiais do Município de São Paulo",
    "localizacao": "Viaduto Santa Efigênia",
    "id_programa": 16,
    "id_distrito": 80,
    "subprefeitura": "SÉ",
    "latitude": -23.542767,
    "longitude": -46.635463,
    "prioritario": false
  },
  {
    "codigo": "245",
    "nome": "Viaduto Santo Amaro",
    "descricao": "Manutenção de Obras de Arte Especiais do Município de São Paulo",
    "localizacao": "Viaduto Santo Amaro",
    "id_programa": 16,
    "id_distrito": 63,
    "subprefeitura": "Pinheiros ",
    "latitude": -23.60855,
    "longitude": -46.676617,
    "prioritario": false
  },
  {
    "codigo": "246",
    "nome": "Viaduto Arapuã",
    "descricao": "Manutenção de Obras de Arte Especiais do Município de São Paulo",
    "localizacao": "Viaduto Arapuã",
    "id_programa": 16,
    "id_distrito": 37,
    "subprefeitura": "Jabaquara ",
    "latitude": -23.630635,
    "longitude": -46.645309,
    "prioritario": false
  },
  {
    "codigo": "247",
    "nome": "Viaduto Pacaembu",
    "descricao": "Manutenção de Obras de Arte Especiais do Município de São Paulo",
    "localizacao": "Viaduto Pacaembu",
    "id_programa": 16,
    "id_distrito": 70,
    "subprefeitura": "SÉ",
    "latitude": -23.526181,
    "longitude": -46.660649,
    "prioritario": false
  },
  {
    "codigo": "248",
    "nome": "Viaduto Incinerador Vergueiro (Saioá)",
    "descricao": "Manutenção de Obras de Arte Especiais do Município de São Paulo",
    "localizacao": "Viaduto Incinerador Vergueiro (Saioá)",
    "id_programa": 16,
    "id_distrito": 92,
    "subprefeitura": "Vila Mariana ",
    "latitude": -23.595232,
    "longitude": -46.621431,
    "prioritario": false
  },
  {
    "codigo": "249",
    "nome": "Viaduto Jacarei",
    "descricao": "Manutenção de Obras de Arte Especiais do Município de São Paulo",
    "localizacao": "Viaduto Jacarei",
    "id_programa": 16,
    "id_distrito": 26,
    "subprefeitura": "SÉ",
    "latitude": -23.551025,
    "longitude": -46.640943,
    "prioritario": false
  },
  {
    "codigo": "250",
    "nome": "Viaduto Nove de Julho",
    "descricao": "Manutenção de Obras de Arte Especiais do Município de São Paulo",
    "localizacao": "Viaduto Nove de Julho",
    "id_programa": 16,
    "id_distrito": 67,
    "subprefeitura": "SÉ",
    "latitude": -23.549675,
    "longitude": -46.642321,
    "prioritario": false
  },
  {
    "codigo": "251",
    "nome": "Viaduto Pires do Rio",
    "descricao": "Manutenção de Obras de Arte Especiais do Município de São Paulo",
    "localizacao": " Interligação entre a Avenida Alcântara Machado e a Rua Melo Freire, sobre a Avenida Salim Farah Mal",
    "id_programa": 16,
    "id_distrito": 82,
    "subprefeitura": null,
    "latitude": -23.542047,
    "longitude": -46.580568,
    "prioritario": false
  },
  {
    "codigo": "257",
    "nome": "Descomplica Ipiranga",
    "descricao": "Expansão do programa Descomplica para as unidades de Prefeituras Regionais",
    "localizacao": "Rua Breno Ferraz do Amaral, 425",
    "id_programa": 8,
    "id_distrito": 33,
    "subprefeitura": "Ipiranga ",
    "latitude": -23.5975651,
    "longitude": -46.6213179,
    "prioritario": false
  },
  {
    "codigo": "258",
    "nome": "Descomplica Lapa",
    "descricao": "Expansão do programa Descomplica para as unidades de Prefeituras Regionais",
    "localizacao": "Rua Guiacurus, 1000",
    "id_programa": 8,
    "id_distrito": 48,
    "subprefeitura": "Lapa ",
    "latitude": -23.5224163,
    "longitude": -46.6957578,
    "prioritario": false
  },
  {
    "codigo": "259",
    "nome": "Descomplica Freguesia do Ó/Brasilândia",
    "descricao": "Expansão do programa Descomplica para as unidades de Prefeituras Regionais",
    "localizacao": "Av. João Marcelino Branco, 95",
    "id_programa": 8,
    "id_distrito": 13,
    "subprefeitura": "Casa Verde ",
    "latitude": -23.4765556,
    "longitude": -46.6653286,
    "prioritario": false
  },
  {
    "codigo": "260",
    "nome": "Calçadão Quadrilátero República",
    "descricao": "Reforma dos pavimentos das calçadas e calçadões, implantação de sinalização turística e ambiental, melhorias no mobiliário urbano e iluminação, drenagem e valas técnicas para Telecom.",
    "localizacao": "Rua 7 de abril",
    "id_programa": 23,
    "id_distrito": 67,
    "subprefeitura": "SÉ",
    "latitude": -23.5461026,
    "longitude": -46.6411121,
    "prioritario": false
  },
  {
    "codigo": "261",
    "nome": "Autódromo de Interlagos - 2021",
    "descricao": "Obras complementares, instalações permanentes e reforma da pista para o GP de Fórmula 1",
    "localizacao": "Av. Sen. Teotônio Vilela, 261",
    "id_programa": 11,
    "id_distrito": 81,
    "subprefeitura": "Capela do Socorro ",
    "latitude": -23.7032826,
    "longitude": -46.7002859,
    "prioritario": false
  },
  {
    "codigo": "262",
    "nome": "Terminal Urbano Itaquera",
    "descricao": "Aproximadamente 55 mil m² de área construída, 55 linhas que transportam 300 mil passageiros por dia.",
    "localizacao": "Av. Itaquera entre Terminal Carrão (Av. Rio das Pedras) e R. César Diaz, Av. Líder até R. Manuel Car",
    "id_programa": 5,
    "id_distrito": 20,
    "subprefeitura": "Aricanduva ",
    "latitude": -23.542126,
    "longitude": -46.467326,
    "prioritario": false
  },
  {
    "codigo": "263",
    "nome": "Córrego Água Branca",
    "descricao": "Obras de Drenagem da Bacia do Córrego Água Branca.",
    "localizacao": "Rua Venâncio Aires e outras",
    "id_programa": 1,
    "id_distrito": 48,
    "subprefeitura": "Lapa ",
    "latitude": -23.528082,
    "longitude": -46.682114,
    "prioritario": false
  },
  {
    "codigo": "264",
    "nome": "Córrego Tanquinho",
    "descricao": "Obra de canalização do córrego com peças pré-moldadas de concreto armado, contemplando posterior revitalização das margens, com plantio e manutenção de mudas (serviços ambientais).",
    "localizacao": "Jd. são bernardo",
    "id_programa": 18,
    "id_distrito": 30,
    "subprefeitura": "Capela do Socorro ",
    "latitude": -23.7584499,
    "longitude": -46.7048732,
    "prioritario": false
  },
  {
    "codigo": "265",
    "nome": "Rua Joaquim Leal e Parque Ecológico Chico Mendes",
    "descricao": "Obra de drenagem, adequação das margens, dragagem e desassoreamento da lagoa e microdrenagem da rua Joaquim Leal e no Parque Ecológico Chico Mendes",
    "localizacao": "Prque Ecológico Chico Mendes",
    "id_programa": 18,
    "id_distrito": 86,
    "subprefeitura": null,
    "latitude": -23.5068236,
    "longitude": -46.429143,
    "prioritario": false
  },
  {
    "codigo": "266",
    "nome": "CTA Prates I  - Complexo Prates",
    "descricao": "Obras de manutenção, reparos e adaptações de infraestrutura de Unidades Socioassistenciais.",
    "localizacao": "Rua Prates nº 1101 Lado Direito - Bom Retiro",
    "id_programa": 19,
    "id_distrito": 9,
    "subprefeitura": "SÉ",
    "latitude": -23.5242207,
    "longitude": -46.6345437,
    "prioritario": false
  },
  {
    "codigo": "267",
    "nome": "CTA Prates II  - Complexo Prates",
    "descricao": "Obras de manutenção, reparos e adaptações de infraestrutura de Unidades Socioassistenciais.",
    "localizacao": "Rua Prates nº 1101, Bom Retiro",
    "id_programa": 19,
    "id_distrito": 9,
    "subprefeitura": "SÉ",
    "latitude": -23.5242207,
    "longitude": -46.6345437,
    "prioritario": false
  },
  {
    "codigo": "268",
    "nome": "CA - Complexo Oficina Boracea",
    "descricao": "Obras de manutenção, reparos e adaptações de infraestrutura de Unidades Socioassistenciais.",
    "localizacao": "Rua Dr. Ribeiro de Almeida 14 - Barra Funda",
    "id_programa": 19,
    "id_distrito": 9,
    "subprefeitura": "SÉ",
    "latitude": -23.524835,
    "longitude": -46.6517246,
    "prioritario": false
  },
  {
    "codigo": "269",
    "nome": "Centro Assistencial Butantã",
    "descricao": "Obras de manutenção, reparos e adaptações de infraestrutura de Unidades Socioassistenciais.",
    "localizacao": "butanta",
    "id_programa": 19,
    "id_distrito": 12,
    "subprefeitura": "Butantã ",
    "latitude": -23.5634872,
    "longitude": -46.7210095,
    "prioritario": false
  },
  {
    "codigo": "270",
    "nome": "CTA Canindé",
    "descricao": "Obras de manutenção, reparos e adaptações de infraestrutura de Unidades Socioassistenciais.",
    "localizacao": "RUA COMENDADOR NESTOR PEREIRA, 77B - MOOCA",
    "id_programa": 19,
    "id_distrito": 9,
    "subprefeitura": "SÉ",
    "latitude": -23.5250196,
    "longitude": -46.6196743,
    "prioritario": false
  },
  {
    "codigo": "271",
    "nome": "CAE Casa Verde",
    "descricao": "Obras de manutenção, reparos e adaptações de infraestrutura de Unidades Socioassistenciais.",
    "localizacao": "Rua Brazelisa Alves de Carvalho 414, Casa Verde",
    "id_programa": 19,
    "id_distrito": 21,
    "subprefeitura": "Casa Verde ",
    "latitude": -23.512289,
    "longitude": -46.6504722,
    "prioritario": false
  },
  {
    "codigo": "272",
    "nome": "ESPASO - Espaço Público do Aprender Social",
    "descricao": "Obras de manutenção, reparos e adaptações de infraestrutura de Unidades Socioassistenciais.",
    "localizacao": "Rua Professor Ascendino Reis 830",
    "id_programa": 19,
    "id_distrito": 53,
    "subprefeitura": "Vila Mariana ",
    "latitude": -23.5983966,
    "longitude": -46.6512318,
    "prioritario": false
  },
  {
    "codigo": "273",
    "nome": "CTA Santo Amaro",
    "descricao": "Obras de manutenção, reparos e adaptações de infraestrutura de Unidades Socioassistenciais.",
    "localizacao": "Av. Miguel Yunes nº 345 - Santo Amaro",
    "id_programa": 19,
    "id_distrito": 72,
    "subprefeitura": "Santo Amaro ",
    "latitude": -23.6865899,
    "longitude": -46.6892887,
    "prioritario": false
  },
  {
    "codigo": "274",
    "nome": "CEU / EMEF - Campos Salles, Pres.",
    "descricao": "Readequação em Quadra Poliesportiva",
    "localizacao": "Estrada das Lágrimas, 2385 - Cid. Nova Heliópolis",
    "id_programa": 20,
    "id_distrito": 33,
    "subprefeitura": "Ipiranga ",
    "latitude": -23.6218736,
    "longitude": -46.5903965,
    "prioritario": false
  },
  {
    "codigo": "275",
    "nome": "EMEI - Brenno Ferraz do Amaral",
    "descricao": "Readequação em Quadra Poliesportiva",
    "localizacao": "R. Jacitara Tipiti, 217 - Jardim Guairacá",
    "id_programa": 20,
    "id_distrito": 74,
    "subprefeitura": "Vila Prudente ",
    "latitude": -23.6043079,
    "longitude": -46.540628,
    "prioritario": false
  },
  {
    "codigo": "276",
    "nome": "EMEI - Mário Marques e Serra, Pe.",
    "descricao": "Readequação em Quadra Poliesportiva",
    "localizacao": "R. Francisco Pestana, 10 - Jardim Maria Estela",
    "id_programa": 20,
    "id_distrito": 33,
    "subprefeitura": "Ipiranga ",
    "latitude": -23.6372438,
    "longitude": -46.6058809,
    "prioritario": false
  },
  {
    "codigo": "277",
    "nome": "CIEJA - Clóvis Caitano Miquelazzo",
    "descricao": "Readequação em Quadra Poliesportiva",
    "localizacao": "R. François Bunel, 250 - Parque Bristol",
    "id_programa": 20,
    "id_distrito": 33,
    "subprefeitura": "Ipiranga ",
    "latitude": -23.6495812,
    "longitude": -46.6102553,
    "prioritario": false
  },
  {
    "codigo": "278",
    "nome": "EMEF - Marlene Rondelli, Prof.ª",
    "descricao": "Readequação em Quadra Poliesportiva",
    "localizacao": "R. Acácio Caristo, 21 - Bairro - Parque Tomas Saraiva",
    "id_programa": 20,
    "id_distrito": 74,
    "subprefeitura": "Vila Prudente ",
    "latitude": -23.5813856,
    "longitude": -46.5382179,
    "prioritario": false
  },
  {
    "codigo": "279",
    "nome": "EMEI - Quinta das Paineiras",
    "descricao": "Readequação em Quadra Poliesportiva",
    "localizacao": "Praça Mário Ortiz, S/N - Quinta das Paineiras",
    "id_programa": 20,
    "id_distrito": 95,
    "subprefeitura": "Vila Prudente ",
    "latitude": -23.5885698,
    "longitude": -46.5880437,
    "prioritario": false
  },
  {
    "codigo": "280",
    "nome": "CEU / EMEF - Meninos",
    "descricao": "Readequação em Quadra Poliesportiva",
    "localizacao": "R. Barbinos, 111 - São João Climaco",
    "id_programa": 20,
    "id_distrito": 33,
    "subprefeitura": "Ipiranga ",
    "latitude": -23.6214207,
    "longitude": -46.5843757,
    "prioritario": false
  },
  {
    "codigo": "281",
    "nome": "EMEF - Maurício Simão",
    "descricao": "Readequação em Quadra Poliesportiva",
    "localizacao": "R. Kunito Miyasaka, 54 - Jd. Martinica - Campo Limpo",
    "id_programa": 20,
    "id_distrito": 17,
    "subprefeitura": "Campo Limpo ",
    "latitude": -23.6301649,
    "longitude": -46.7687865,
    "prioritario": false
  },
  {
    "codigo": "282",
    "nome": "EMEF - Maria Rita de Cassia Pinheiros Simões Braga, Prof.ª",
    "descricao": "Readequação em Quadra Poliesportiva",
    "localizacao": "R. Maria Callas, 30 - Parque Ligia - Campo Limpo",
    "id_programa": 20,
    "id_distrito": 19,
    "subprefeitura": "Campo Limpo ",
    "latitude": -23.6591532,
    "longitude": -46.7833379,
    "prioritario": false
  },
  {
    "codigo": "283",
    "nome": "EMEF - 22 de Março",
    "descricao": "Readequação em Quadra Poliesportiva",
    "localizacao": "R. Francisco Soares, 51 - Parque Regina-Campo Limpo",
    "id_programa": 20,
    "id_distrito": 17,
    "subprefeitura": "Campo Limpo ",
    "latitude": -23.6363506,
    "longitude": -46.7498706,
    "prioritario": false
  },
  {
    "codigo": "284",
    "nome": "EMEF - Teresa Margarida da Silva e Orta",
    "descricao": "Readequação em Quadra Poliesportiva",
    "localizacao": "R. Eng.º Milton de Alvarenga Peixoto, 20 - Vila Gilda",
    "id_programa": 20,
    "id_distrito": 42,
    "subprefeitura": "M´Boi Mirim",
    "latitude": -23.7222168,
    "longitude": -46.7570686,
    "prioritario": false
  },
  {
    "codigo": "285",
    "nome": "EMEF - Luiz Tenório de Brito, Cel.",
    "descricao": "Readequação em Quadra Poliesportiva",
    "localizacao": "R. Baldomero Carqueja, 278 - Campo Limpo",
    "id_programa": 20,
    "id_distrito": 45,
    "subprefeitura": "M´Boi Mirim",
    "latitude": -23.6466246,
    "longitude": -46.7513845,
    "prioritario": false
  },
  {
    "codigo": "286",
    "nome": "EMEF - Afrânio de Mello Franco, Dr.",
    "descricao": "Readequação em Quadra Poliesportiva",
    "localizacao": "R. Acambaro, 39 - Vila Cliper - Capela do Socorro",
    "id_programa": 20,
    "id_distrito": 23,
    "subprefeitura": "Capela do Socorro ",
    "latitude": -23.7204504,
    "longitude": -46.701714,
    "prioritario": false
  },
  {
    "codigo": "287",
    "nome": "EMEF - Florestan Fernandes, Prof.",
    "descricao": "Readequação em Quadra Poliesportiva",
    "localizacao": "Av. Margueritte Long, 41 - Jd. Guanabara - C. socorro",
    "id_programa": 20,
    "id_distrito": 23,
    "subprefeitura": "Capela do Socorro ",
    "latitude": -23.7642081,
    "longitude": -46.7125948,
    "prioritario": false
  },
  {
    "codigo": "288",
    "nome": "EMEF - Aldina Anália Agostinha Taddeo Conde Prof.ª",
    "descricao": "Readequação em Quadra Poliesportiva",
    "localizacao": "R. Francesco Bartolozzi, 1 - Jd. Icaraí - Cap. do Socorro",
    "id_programa": 20,
    "id_distrito": 23,
    "subprefeitura": "Capela do Socorro ",
    "latitude": -23.7448618,
    "longitude": -46.7045744,
    "prioritario": false
  },
  {
    "codigo": "289",
    "nome": "EMEF - Habib Carlos Kyrillos, Dr.",
    "descricao": "Readequação em Quadra Poliesportiva",
    "localizacao": "R. Rio Grande do Norte, 299 - Americanópolis ",
    "id_programa": 20,
    "id_distrito": 22,
    "subprefeitura": "Cidade Ademar ",
    "latitude": -23.675088,
    "longitude": -46.6460064,
    "prioritario": false
  },
  {
    "codigo": "290",
    "nome": "EMEF - Chiquinha Rodrigues",
    "descricao": "Readequação em Quadra Poliesportiva",
    "localizacao": "R. Pascal, 1028 - Campo Belo",
    "id_programa": 20,
    "id_distrito": 15,
    "subprefeitura": "Santo Amaro ",
    "latitude": -23.6208934,
    "longitude": -46.671842,
    "prioritario": false
  },
  {
    "codigo": "291",
    "nome": "EMEF - Joaquim Candido de Azevedo Marques, Des.",
    "descricao": "Readequação em Quadra Poliesportiva",
    "localizacao": "R. da Paz, 1387 - Chácara Santo Antônio",
    "id_programa": 20,
    "id_distrito": 72,
    "subprefeitura": "Santo Amaro ",
    "latitude": -23.6294132,
    "longitude": -46.7020178,
    "prioritario": false
  },
  {
    "codigo": "292",
    "nome": "EMEF - Manoel Carlos de Figueiredo Ferraz, Desemb.",
    "descricao": "Readequação em Quadra Poliesportiva",
    "localizacao": "R. Professor Correa Brito, 355 - Jardim Pedreira",
    "id_programa": 20,
    "id_distrito": 59,
    "subprefeitura": "Cidade Ademar ",
    "latitude": -23.6914666,
    "longitude": -46.6656256,
    "prioritario": false
  },
  {
    "codigo": "293",
    "nome": "EMEF - João de Souza Ferraz, Prof.ª",
    "descricao": "Readequação em Quadra Poliesportiva",
    "localizacao": "R. Rafael Correia Sampaio, 291 - Jardim Palmares",
    "id_programa": 20,
    "id_distrito": 16,
    "subprefeitura": "Santo Amaro ",
    "latitude": -23.6894218,
    "longitude": -46.6755891,
    "prioritario": false
  },
  {
    "codigo": "294",
    "nome": "EMEF  - Carlos Augusto de Queiroz Rocha",
    "descricao": "Readequação em Quadra Poliesportiva",
    "localizacao": "Av. Santo Afonso, 775 - Jardim Miriam",
    "id_programa": 20,
    "id_distrito": 22,
    "subprefeitura": "Cidade Ademar ",
    "latitude": -23.6815414,
    "longitude": -46.6449163,
    "prioritario": false
  },
  {
    "codigo": "295",
    "nome": "EMEF - Amélia Rodrigues de Oliveira, Prof.ª",
    "descricao": "Readequação em Quadra Poliesportiva",
    "localizacao": "R. dos Borôs, 02 - Vila Guacuri",
    "id_programa": 20,
    "id_distrito": 22,
    "subprefeitura": "Cidade Ademar ",
    "latitude": -23.6978499,
    "longitude": -46.6313751,
    "prioritario": false
  },
  {
    "codigo": "296",
    "nome": "EMEI - Pedreira I",
    "descricao": "Readequação em Quadra Poliesportiva",
    "localizacao": "R. Coronel Antônio Inojosa, 770 - Jardim Pedreira",
    "id_programa": 20,
    "id_distrito": 59,
    "subprefeitura": "Cidade Ademar ",
    "latitude": -23.6961385,
    "longitude": -46.6673089,
    "prioritario": false
  },
  {
    "codigo": "297",
    "nome": "EMEI - Borba Gato",
    "descricao": "Readequação em Quadra Poliesportiva",
    "localizacao": "R. Paulo Eiró, 567 - Santo amaro",
    "id_programa": 20,
    "id_distrito": 72,
    "subprefeitura": "Santo Amaro ",
    "latitude": -23.6501987,
    "longitude": -46.708178,
    "prioritario": false
  },
  {
    "codigo": "298",
    "nome": "EMEI - Doraci dos Santos Ramos, Prof.ª",
    "descricao": "Readequação em Quadra Poliesportiva",
    "localizacao": "R. São Valfredo, S/N - Chácara Santa Etelvina",
    "id_programa": 20,
    "id_distrito": 25,
    "subprefeitura": "Cidade Tiradentes ",
    "latitude": -23.5867156,
    "longitude": -46.4055591,
    "prioritario": false
  },
  {
    "codigo": "299",
    "nome": "EMEI - Eduardo Kneese de Mello, Prof.",
    "descricao": "Readequação em Quadra Poliesportiva",
    "localizacao": "R. Nascer do Sol, 1605 - Conj. Hab. Santa Etelvina II",
    "id_programa": 20,
    "id_distrito": 25,
    "subprefeitura": "Cidade Tiradentes ",
    "latitude": -23.5938676,
    "longitude": -46.4143616,
    "prioritario": false
  },
  {
    "codigo": "300",
    "nome": "EMEF - Maria Aparecida do Nascimento, Prof.ª",
    "descricao": "Readequação em Quadra Poliesportiva",
    "localizacao": "R. Edson Danilo Dotto, 700 - Conj. Hab. S. Etelvina II",
    "id_programa": 20,
    "id_distrito": 25,
    "subprefeitura": "Cidade Tiradentes ",
    "latitude": -23.5930601,
    "longitude": -46.4134362,
    "prioritario": false
  },
  {
    "codigo": "301",
    "nome": "EMEI - Fulvia Rosemberg, Prof.ª",
    "descricao": "Readequação em Quadra Poliesportiva",
    "localizacao": "R. Moacir Gomes de Almeida, 26 - Vila Paulista",
    "id_programa": 20,
    "id_distrito": 25,
    "subprefeitura": "Cidade Tiradentes ",
    "latitude": -23.5785817,
    "longitude": -46.4052357,
    "prioritario": false
  },
  {
    "codigo": "302",
    "nome": "CEU EMEF - Conceição Aparecida de Jesus, Prof.ª",
    "descricao": "Readequação em Quadra Poliesportiva",
    "localizacao": "Av. Ernesto souza Cruz, 2171 - Cid. Ant. Est. Carvalho",
    "id_programa": 20,
    "id_distrito": 36,
    "subprefeitura": "Itaquera ",
    "latitude": -23.5214415,
    "longitude": -46.4568202,
    "prioritario": false
  },
  {
    "codigo": "303",
    "nome": "EMEF - Eduardo Prado",
    "descricao": "Readequação em Quadra Poliesportiva",
    "localizacao": "R. Bento Teixeira, 100 - Jd. Brasilia",
    "id_programa": 20,
    "id_distrito": 24,
    "subprefeitura": "Itaquera ",
    "latitude": -23.5636784,
    "longitude": -46.4927264,
    "prioritario": false
  },
  {
    "codigo": "304",
    "nome": "EMEI - Pedro Chaves, Min.",
    "descricao": "Readequação em Quadra Poliesportiva",
    "localizacao": "R. Isabel Urbina, 149 - Jd. Bonifácio",
    "id_programa": 20,
    "id_distrito": 46,
    "subprefeitura": "Itaquera ",
    "latitude": -23.5466703,
    "longitude": -46.4377153,
    "prioritario": false
  },
  {
    "codigo": "305",
    "nome": "EMEI - Piratininga",
    "descricao": "Readequação em Quadra Poliesportiva",
    "localizacao": "R. Galeandra, 149 - Jd. Eliane",
    "id_programa": 20,
    "id_distrito": 24,
    "subprefeitura": "Itaquera ",
    "latitude": -23.5510349,
    "longitude": -46.5035163,
    "prioritario": false
  },
  {
    "codigo": "306",
    "nome": "EMEF - Francisco Alves  Mendes Filho",
    "descricao": "Readequação em Quadra Poliesportiva",
    "localizacao": "R. Quintino da Cunha, 22 - Jd. Marília",
    "id_programa": 20,
    "id_distrito": 24,
    "subprefeitura": "Itaquera ",
    "latitude": -23.5619076,
    "longitude": -46.4956958,
    "prioritario": false
  },
  {
    "codigo": "307",
    "nome": "CEU / EMEF - Paulo Gomes Cardim, Prof. Dr.",
    "descricao": "Readequação em Quadra Poliesportiva",
    "localizacao": "Av. Olga Fadel Abarca, S/N - Jd. Santa Teresinha",
    "id_programa": 20,
    "id_distrito": 24,
    "subprefeitura": "Itaquera ",
    "latitude": -23.573717,
    "longitude": -46.5022499,
    "prioritario": false
  },
  {
    "codigo": "308",
    "nome": "EMEI - Florinda Roberto Queiroz de Castro",
    "descricao": "Readequação em Quadra Poliesportiva",
    "localizacao": "R. Lincon Junqueira, 100 - Jd. São Pedro",
    "id_programa": 20,
    "id_distrito": 46,
    "subprefeitura": "Itaquera ",
    "latitude": -23.5473238,
    "longitude": -46.4303763,
    "prioritario": false
  },
  {
    "codigo": "309",
    "nome": "EMEI - Olandya Peres Ribeiro, Prof.ª",
    "descricao": "Readequação em Quadra Poliesportiva",
    "localizacao": "R. Mariano Cursino de Moura, 395 - Pq. Maria Luiza",
    "id_programa": 20,
    "id_distrito": 4,
    "subprefeitura": "Aricanduva ",
    "latitude": -23.5581312,
    "longitude": -46.5162197,
    "prioritario": false
  },
  {
    "codigo": "310",
    "nome": "EMEF - José Querino Ribeiro",
    "descricao": "Readequação em Quadra Poliesportiva",
    "localizacao": "R. Cel. Albert de Rochas D'aiglum, 50 - V. Aricanduva",
    "id_programa": 20,
    "id_distrito": 24,
    "subprefeitura": "Itaquera ",
    "latitude": -23.5688792,
    "longitude": -46.4817144,
    "prioritario": false
  },
  {
    "codigo": "311",
    "nome": "EMEF - Gilmar Taccola, Prof.",
    "descricao": "Readequação em Quadra Poliesportiva",
    "localizacao": "R. Lutécia, 1730 - Vila Santa Isabel",
    "id_programa": 20,
    "id_distrito": 20,
    "subprefeitura": "Aricanduva ",
    "latitude": -23.5582846,
    "longitude": -46.5417929,
    "prioritario": false
  },